Property_id,lat,lng,addr_street,suburb,price,property_type,year,bedrooms,bathrooms,parking_space,Shopping_center_id,Distance_to_sc,Train_station_id,Distance_to_train_station,travel_min_to_CBD,Hospital_id,Distance_to_hospital,Supermarket_id,Distance_to_supermaket,Over_ave_price
82836,-37.908866,145.251074,6 Erskine Drive,ROWVILLE,3753000,house,2011,4,2,1,SC_049,5.2723,19868,4.92,0,hospital_026,4.6926,S_027,2.049,False
22777,-37.74665200000001,144.97061599999995,41 Coburg Street,COBURG,8176000,house,2011,3,1,2,SC_030,2.4018,19965,0.8003,0,hospital_144,1.099,S_173,0.5983,False
30853,-37.756321,145.018194,176 Collins Street,THORNBURY,3168000,house,2013,4,2,3,SC_047,2.2477,20014,1.7328,0,hospital_035,1.1694,S_105,1.4087,False
67729,-37.741383,145.344518,84 The Gateway,LILYDALE,17930000,house,2010,3,2,2,SC_084,3.2757,19876,1.5983,0,hospital_151,1.6431,S_233,1.9117,True
4622,-37.837099,144.87803200000005,69A Elizabeth Street,NEWPORT,5085000,house,2013,2,1,1,SC_033,2.9845,19994,0.7942,20,hospital_141,3.0566,S_056,2.7834,False
12396,-37.720899,144.772745,16 Brampton Cct,DELAHEY,5418000,house,2010,3,2,2,SC_048,3.0602,20001,2.0704,36,hospital_057,5.7388,S_094,2.0923,True
60233,-37.820297,145.204058,7 Willow Avenue,MITCHAM,7910000,house,2011,3,1,1,SC_088,2.1555,19901,0.7833,0,hospital_010,1.4026,S_040,2.3619,False
73813,-37.86257935,145.2630158,52A Dixon Court,BORONIA,6480000,house,2009,3,1,0,SC_049,5.3235,19869,1.8929,0,hospital_002,0.9126,S_024,1.898,True
42197,-37.765983,145.066094,4 Lawrence Street,EAGLEMONT,16100000,house,2014,3,2,2,SC_017,1.1576,19935,1.1001,26,hospital_046,1.0753,S_100,0.7868,True
30752,-37.76036835,145.00959780000005,145 Clarendon Street,THORNBURY,7704000,house,2009,2,1,1,SC_103,2.4096,20014,1.1366,0,hospital_035,0.3223,S_105,1.1606,False
75353,-37.887625,145.067608,6/21 Adelaide Street,MURRUMBEENA,6525000,house,2016,2,1,1,SC_041,0.8487,19919,0.2872,30,hospital_108,2.3615,S_048,0.9029,False
4070,-37.841894,144.874799,115 Mason Street,NEWPORT,9435000,house,2012,3,1,1,SC_033,2.9914,19994,0.7791,20,hospital_141,2.7163,S_056,2.5957,True
90318,-37.97246552,145.0571747,22 Gillman Street,CHELTENHAM,6100000,house,2008,3,1,1,SC_003,2.8024,19866,0.6869,37,hospital_055,0.9493,S_011,1.1128,False
79291,-37.94337082,145.16499330000005,65 Garnsworthy Street,SPRINGVALE,4539000,house,2006,3,1,1,SC_073,4.5223,19913,1.222,44,hospital_124,3.3318,S_075,1.6269,False
50687,-37.789721,145.139757,1/24 Burilla Avenue,DONCASTER,7840000,house,2013,3,1,1,SC_091,1.2461,19897,3.4584,0,hospital_194,2.8266,S_188,1.4189,False
85590,-37.8975766,145.010275,38 Magnolia Road,GARDENVALE,16100000,house,2011,3,2,2,SC_023,3.723,19953,0.5453,19,hospital_013,0.2938,S_151,1.0694,False
61974,-37.82012,145.239575,41 Heathmont Road,RINGWOOD,7728000,house,2016,3,2,1,SC_032,1.2521,19871,1.0126,0,hospital_105,1.0462,S_190,1.2511,True
63699,-37.811585,145.280691,18 Araluen Drive,CROYDON,8895000,house,2016,3,2,1,SC_022,1.4072,19878,1.7976,0,hospital_164,2.2481,S_055,1.2876,True
93758,-38.021983,145.10728799999995,9 Tarongo Drive,ASPENDALE,7150000,house,2014,3,2,2,SC_003,5.8821,19862,0.7368,46,hospital_001,4.6172,S_119,2.3808,False
69135,-37.845011,145.037972,4 Milton Parade,MALVERN,13920000,house,2010,3,2,2,SC_038,2.6587,19911,0.5868,15,hospital_168,1.4961,S_235,1.8674,False
68277,-37.855245,145.025691,11/7 Mercer Road,ARMADALE,22220000,house,2016,3,2,2,SC_038,2.2399,19945,0.5754,23,hospital_092,0.9969,S_235,0.6191,True
60730,-37.837442,145.203197,4 Kay Court,VERMONT,7578000,house,2015,4,2,2,SC_088,2.8949,19901,2.2301,0,hospital_008,2.4692,S_202,2.8098,False
54009,-37.820279,145.02503000000004,100 Elgin Street,HAWTHORN,9500000,house,2011,3,1,0,SC_083,0.9287,19905,0.2545,18,hospital_086,0.5278,S_208,0.9178,False
87149,-37.912904,145.005606,83 William Street,BRIGHTON,16920000,house,2012,3,2,2,SC_046,4.1265,19951,0.8542,22,hospital_156,1.2405,S_151,0.7419,False
49751,-37.80753326,145.09133909999997,85 Winmalee Road,BALWYN,11300000,house,2009,3,1,1,SC_020,2.962,19896,1.8194,0,hospital_117,2.2544,S_136,0.9843,False
95000,-37.910929,145.039356,187 McKinnon Road,MCKINNON,6900000,house,2011,2,1,1,SC_046,3.1817,19940,0.1157,36,hospital_126,2.0977,S_107,0.9873,False
45828,-37.712602,145.125111,14 St Faiths Road,MONTMORENCY,7900000,house,2014,3,3,1,SC_051,5.2993,19986,0.4361,40,hospital_075,1.8879,S_210,2.249,False
7357,-37.748405,144.764182,27 Albanvale Drive,ALBANVALE,8250000,house,2016,4,2,2,SC_048,2.6339,20002,3.1817,33,hospital_057,4.6284,S_070,0.8676,True
57103,-37.819088,145.06051599999995,19 Torrington Street,CANTERBURY,10530000,house,2010,3,1,1,SC_099,0.6243,19853,0.8478,25,hospital_064,1.5786,S_113,1.1323,False
1224,-37.798272,144.891059,58 Wolverhampton Street,FOOTSCRAY,8793000,house,2016,4,2,1,SC_043,2.6495,20024,0.4726,17,hospital_003,0.6937,S_201,0.6706,True
74025,-37.869057,145.29630500000005,8 Sassafras Court,BORONIA,4545000,house,2011,4,2,2,SC_049,3.0106,19868,1.4102,0,hospital_049,1.3945,S_146,1.1988,False
3548,-37.812957,144.86584399999995,44 Kidman Street,YARRAVILLE,6955000,house,2011,3,1,3,SC_043,2.182,20022,1.5469,21,hospital_056,2.8416,S_149,2.1816,False
6402,-37.777528,144.822882,2/65 Sydney Street,ALBION,15340000,house,2011,3,2,1,SC_102,1.0817,20004,0.1609,28,hospital_174,0.8485,S_080,1.0082,True
7021,-37.78581238,144.8193054,8 Mcintosh Street,SUNSHINE,3014000,house,2008,3,1,1,SC_102,1.3137,20004,1.025,28,hospital_174,1.473,S_080,1.2994,False
62703,-37.827852,145.23343799999995,20 Valerie Court,HEATHMONT,14569000,house,2015,3,2,3,SC_032,1.7292,19871,0.9789,0,hospital_105,2.0445,S_040,1.8173,True
36045,-37.680666,145.03649,7 Bates Avenue,THOMASTOWN,3465000,house,2013,3,1,2,SC_062,5.3912,20007,1.9571,0,hospital_041,2.6222,S_228,1.9297,False
66923,-37.739788,145.3456768,11 Glenloth Avenue,LILYDALE,6825000,house,2012,3,2,2,SC_084,3.4618,19876,1.7601,0,hospital_151,1.7237,S_233,2.0627,False
54202,-37.817858,145.02926100000005,1A Linda Crescent,HAWTHORN,21000000,house,2014,3,3,3,SC_083,0.6277,19905,0.7128,18,hospital_086,0.2203,S_208,0.5934,True
76309,-37.89227,145.079422,563 Neerim Road,HUGHESDALE,12000000,house,2008,3,1,1,SC_087,0.4692,19918,0.3304,32,hospital_166,2.4588,S_167,0.469,True
76741,-37.922223,145.111164,29 Harlington Street,CLAYTON,10880000,house,2010,3,1,2,SC_087,4.5725,19915,0.8672,39,hospital_076,0.8278,S_169,0.7745,True
17956,-37.692749,144.926345,1/3 Evans Court,BROADMEADOWS,3740000,house,2015,3,2,3,SC_059,3.6808,20031,0.9617,34,hospital_104,4.7102,S_209,1.4895,False
6943,-37.792575,144.837339,7 Drayton Street,SUNSHINE,7275000,house,2012,4,2,2,SC_102,1.1878,20021,0.5967,25,hospital_174,1.7101,S_080,1.2739,True
71843,-37.84983826,145.2306519,9 Badminton Court,WANTIRNA,2400000,house,2005,3,1,0,SC_032,4.1314,19871,2.6889,0,hospital_179,0.278,S_226,2.0971,False
93667,-38.00522232,145.08901980000005,77 Barkly Street,MORDIALLOC,7140000,house,2009,4,2,3,SC_003,3.7949,19863,0.1928,44,hospital_001,2.158,S_119,0.3764,False
51893,-37.793016,145.20813700000005,312-314 Oban Road,DONVALE,19040000,house,2013,5,3,2,SC_032,2.8522,19901,2.9097,0,hospital_070,2.257,S_040,2.7804,True
79419,-37.95838547,145.1588287,9 Burrapike Avenue,SPRINGVALE,2300000,house,2006,2,1,0,SC_057,4.029,19891,0.4086,46,hospital_124,2.2188,S_075,0.8364,False
25050,-37.60603714,144.9126129,10 Tournament Rise,CRAIGIEBURN,2232000,house,2008,3,2,2,SC_016,1.4691,40221,2.7486,45,hospital_104,5.0188,S_178,2.3137,False
73525,-37.863776,145.277394,30 Stonehaven Avenue,BORONIA,5525000,house,2013,3,2,2,SC_049,4.3556,19869,0.7172,0,hospital_049,0.4852,S_024,0.6734,False
41535,-37.744979,145.085983,120 Buckingham Drive,HEIDELBERG,11040000,house,2012,3,1,2,SC_017,1.9499,19936,1.7622,28,hospital_066,2.4175,S_100,2.2088,True
23515,-37.646159,144.907598,23 Firth Way,GREENVALE,13260000,house,2014,4,3,3,SC_072,1.3862,44817,2.3187,39,hospital_104,1.2376,S_211,2.3731,True
59585,-37.830451,145.195511,2/1 Premier Avenue,MITCHAM,8470000,house,2010,3,2,2,SC_088,1.8701,19900,1.4194,0,hospital_010,2.2294,S_202,1.8458,False
88608,-37.946425,145.027935,2/2 Fuge Street,HIGHETT,6192000,house,2016,3,1,1,SC_079,1.1919,19872,1.2435,41,hospital_110,1.6793,S_214,0.5218,False
78,-37.829769,144.94963700000002,83 Montague Street,SOUTHBANK,12750000,house,2015,3,1,1,SC_076,0.4931,22180,1.3264,4,hospital_176,0.7426,S_016,0.6952,False
36309,-37.665028,145.033953,232 Darebin Drive,LALOR,3500000,house,2012,3,1,2,SC_062,4.7797,20005,1.4471,0,hospital_053,2.147,S_229,1.2489,False
72990,-37.865417,145.287945,15 Hastings Avenue,BORONIA,3717000,house,2011,3,2,2,SC_049,3.687,19869,0.6351,0,hospital_049,0.557,S_146,0.417,False
34897,-37.718168,145.024024,4/24 Charlton Crescent,RESERVOIR,3315000,house,2013,1,1,1,SC_047,2.3356,20010,1.5062,0,hospital_025,1.6915,S_225,0.8573,False
29550,-37.766076,144.998052,17 Gladstone Avenue,NORTHCOTE,15929000,house,2014,3,1,0,SC_103,2.9689,20015,0.2367,0,hospital_035,0.9311,S_105,1.741,True
68566,-37.85933304,145.01184080000004,5 Redcourt Avenue,ARMADALE,19500000,house,2008,4,2,2,SC_066,2.0911,19945,0.7318,23,hospital_132,0.6358,S_115,1.383,False
59580,-37.80696,145.200614,2 Sunninghill Court,MITCHAM,7890000,house,2011,3,2,2,SC_088,2.306,19900,1.4458,0,hospital_070,0.6787,S_040,2.5363,False
61687,-37.823066,145.223535,29 Heywood Street,RINGWOOD,6765000,house,2010,3,1,0,SC_032,1.2384,19902,0.9311,0,hospital_105,2.1716,S_040,1.3195,False
19667,-37.675737,144.90191399999995,24 Kenny Street,WESTMEADOWS,4777000,house,2015,3,2,1,SC_059,2.04,20030,1.759,36,hospital_104,3.2292,S_153,1.7584,True
50914,-37.791465,145.124139,18 Hanke Rd,DONCASTER,12500000,house,2015,4,3,2,SC_091,0.514,20042,3.099,0,hospital_194,2.1656,S_188,0.4972,True
43999,-37.699781,145.119939,1/143 St Helena Road,GREENSBOROUGH,11986000,house,2009,3,2,2,SC_051,4.5537,19985,1.1297,38,hospital_075,1.375,S_210,1.5739,True
24781,-37.668928,144.954306,5 Russell Street,CAMPBELLFIELD,5005000,house,2013,3,1,2,SC_072,3.477,19960,0.7383,0,hospital_104,3.6107,S_161,2.3198,True
83863,-37.854747,145.003073,31 Bowen Street,PRAHRAN,15120000,house,2015,2,1,2,SC_066,1.1767,19957,0.981,11,hospital_012,0.3793,S_115,0.7706,True
24817,-37.680375,144.96633300000005,7  Keown Court,CAMPBELLFIELD,4095000,house,2016,3,1,1,SC_072,5.0975,19960,2.348,0,hospital_139,4.995,S_161,1.2422,False
47128,-37.697216,145.161582,4  Marion Way,ELTHAM,6030000,house,2014,4,2,2,SC_051,2.6264,19987,2.1851,44,hospital_075,4.9856,S_194,2.0046,False
46290,-37.7269783,145.1325378,93 Buena Vista Drive,MONTMORENCY,9333000,house,2009,4,3,0,SC_009,5.5962,19986,1.6226,40,hospital_075,3.381,S_194,2.6085,True
58473,-37.809341,145.178781,10 Efron Street,NUNAWADING,8100000,house,2014,4,2,2,SC_088,1.1136,19899,1.2995,0,hospital_070,1.3229,S_202,1.6373,False
52194,-37.823278,145.013352,12 Campbell Street,RICHMOND,7139000,house,2012,2,1,0,SC_038,1.9765,19906,0.6979,10,hospital_122,0.9289,S_102,1.9525,False
67080,-37.770073,145.363357,15A David Road,LILYDALE,4740000,house,2014,3,1,0,SC_084,4.5473,19876,2.1263,0,hospital_113,1.1748,S_081,1.6561,False
87028,-37.921883,144.99731699999995,7 Exon Street,BRIGHTON,28730000,house,2015,4,2,2,SC_046,4.1014,19951,0.7565,22,hospital_156,1.2342,S_009,0.7471,True
31387,-37.754635,145.01033,62A Pender Street,THORNBURY,9620000,house,2010,3,1,1,SC_103,1.8306,20014,1.0359,0,hospital_035,0.9468,S_105,0.7107,True
212,-37.78922100000001,144.886803,11 Maddock Street,FOOTSCRAY,7700000,house,2014,3,1,1,SC_085,1.7706,20023,1.4072,19,hospital_003,0.3925,S_201,1.618,False
87865,-37.937951,145.018342,6 Weeroona St,HAMPTON,12415000,house,2014,3,1,0,SC_046,1.7644,19949,1.4812,27,hospital_036,1.3775,S_214,0.8949,False
38568,-37.770284,145.04374099999995,12 John Street,IVANHOE,13310000,house,2014,3,1,1,SC_001,0.3147,19933,0.214,22,hospital_039,1.3761,S_219,0.2879,True
78273,-37.932345,145.15803799999995,62 Lebanon Crescent,MULGRAVE,8959000,house,2011,3,2,2,SC_073,3.7999,19914,1.8197,42,hospital_076,3.4939,S_075,2.4195,True
39370,-37.70279,145.058111,10 Edro Court,BUNDOORA,7980000,house,2016,5,2,2,SC_047,4.6727,19984,2.4377,34,hospital_037,0.1354,S_155,0.5378,True
68916,-37.861893,145.037578,20 Dixon Street,MALVERN,19560000,house,2015,3,1,0,SC_023,1.6588,19944,0.875,19,hospital_183,0.2529,S_235,0.7842,True
4518,-37.83811951,144.8765869,"5/45 Oxford Street,",NEWPORT,2090000,house,2009,1,1,2,SC_033,2.9157,19994,0.8013,20,hospital_141,3.0057,S_056,2.6672,False
406,-37.803627,144.886872,16 Scott Street,SEDDON,10450000,house,2014,3,2,2,SC_043,2.4916,20023,0.2439,19,hospital_056,1.1698,S_201,1.0308,True
86083,-37.907445,145.00574,126 Male Street,BRIGHTON,6955000,house,2016,5,3,2,SC_046,4.5748,19952,0.3961,20,hospital_156,1.3357,S_151,0.1458,False
84695,-37.88471985,144.99104309999996,17 Foam Street,ELWOOD,11830000,house,2008,2,2,2,SC_015,2.0021,19954,0.8658,17,hospital_116,1.6105,S_133,1.3159,False
69076,-37.8651739,145.0358438,32 Cummins Grove,MALVERN,14200000,house,2011,3,2,2,SC_023,1.3735,19944,0.588,19,hospital_183,0.3553,S_013,0.8093,False
7805,-37.778284,144.799996,25 Rockbank Road,ARDEER,7202000,house,2016,2,1,1,SC_102,2.9882,20004,2.175,28,hospital_057,2.3562,S_130,2.2147,False
40066,-37.70990753,145.05235290000005,22 Barlow Rise,BUNDOORA,9840000,house,2008,4,2,2,SC_047,3.7322,19983,2.3238,31,hospital_037,1.0051,S_155,1.267,True
41808,-37.759682,145.062846,2/42 Castle Street,EAGLEMONT,18760000,house,2015,4,2,2,SC_017,0.6634,19935,0.3471,26,hospital_046,0.3531,S_100,0.4949,True
66306,-37.781906,145.337347,38 Larbert Road,MOOROOLBARK,9720000,house,2012,4,2,2,SC_084,3.3522,19877,2.2173,0,hospital_113,2.6973,S_081,2.6708,True
86272,-37.92705,145.000851,19 Yuille Street,BRIGHTON,10340000,house,2013,4,3,2,SC_046,3.5716,19950,1.029,24,hospital_036,1.7303,S_088,1.1294,False
56021,-37.844166,145.08733999999995,9 Stornoway Road,CAMBERWELL,19910000,house,2014,2,1,3,SC_099,3.3921,19849,1.019,34,hospital_089,1.5928,S_160,1.762,True
34551,-37.692817,144.98335500000005,29 Wattlebird Crescent,RESERVOIR,5580000,house,2014,3,2,2,SC_030,5.29,19961,2.3271,0,hospital_139,3.0444,S_161,2.2398,False
74941,-37.902988,145.056483,29 Elimatta Road,CARNEGIE,12540000,house,2015,3,1,1,SC_041,2.039,19941,1.4819,35,hospital_159,2.3242,S_015,1.7037,True
43449,-37.704562,145.082512,11 Regis Court,WATSONIA,5100000,house,2011,4,1,2,SC_017,5.8311,19984,0.7209,34,hospital_075,2.0579,S_020,1.546,False
20238,-37.796685,144.97204,87 Palmerston Street,CARLTON,7137000,house,2012,3,1,1,SC_008,1.6988,19843,1.6014,7,hospital_188,0.6656,S_200,0.5426,False
42926,-37.726694,145.101692,19 Corandirk Place,YALLAMBIE,9450000,house,2013,4,2,3,SC_017,4.3583,19986,2.1579,40,hospital_075,2.4284,S_020,2.4532,True
68486,-37.85723,145.023814,33 Stuart Street,ARMADALE,9040000,house,2012,2,1,1,SC_038,2.3042,19945,0.4039,23,hospital_092,0.8417,S_235,0.5566,False
6290,-37.78475189,144.83943180000003,18 Cameron Street,SUNSHINE,5100000,house,2009,3,1,1,SC_102,0.5819,20021,0.7141,25,hospital_174,0.9936,S_080,0.6567,False
58362,-37.826197,145.15393500000005,8 Wellington Avenue,BLACKBURN,12320000,house,2015,3,2,2,SC_002,1.7189,19898,0.7642,0,hospital_060,0.7761,S_018,0.8223,True
54310,-37.818202,145.024021,25 Connell Street,HAWTHORN,10200000,house,2012,3,1,2,SC_083,1.048,19905,0.4153,18,hospital_086,0.6194,S_208,1.0249,False
7413,-37.741668,144.774567,307 Main Road West,ALBANVALE,4912000,house,2015,4,1,0,SC_048,3.067,20001,2.1795,36,hospital_057,4.0919,S_070,1.0128,False
17305,-37.705359,144.941562,46 Volga Street,HADFIELD,9380000,house,2014,4,3,2,SC_030,3.1038,19961,1.6113,0,hospital_139,5.1576,S_004,0.31,True
70466,-37.875421,145.094308,10 Collins Street,CHADSTONE,11265000,house,2010,3,2,2,SC_042,0.3262,19839,0.3398,26,hospital_098,1.5183,S_112,1.0008,True
93746,-38.000894,145.091505,9 Francis Street,MORDIALLOC,7865000,house,2010,3,1,2,SC_003,3.32,19863,0.7175,44,hospital_001,1.9974,S_119,0.9027,False
26374,-37.57846832,144.9303894,3 Nottingham Close,CRAIGIEBURN,5040000,house,2009,4,2,2,SC_005,0.9782,40221,2.8384,45,hospital_104,8.0882,S_178,1.758,True
45239,-37.702615,145.095874,51 Lorimer Street,GREENSBOROUGH,7700000,house,2013,4,2,2,SC_062,5.7433,19985,1.0999,38,hospital_075,0.9236,S_020,0.4357,True
2459,-37.808968,144.879054,7/35 Kingsville Street,KINGSVILLE,12560000,house,2016,1,1,1,SC_043,2.2991,20023,0.9692,19,hospital_056,1.8714,S_201,1.9019,True
93991,-38.065288,145.126303,59 Coast Banksia Drive,BONBEACH,7650000,house,2016,4,2,2,SC_070,5.5619,19859,0.6363,51,hospital_096,8.8878,S_077,1.5223,True
88940,-37.94549,145.03165800000005,57 Peterson Street,HIGHETT,7830000,house,2015,3,1,2,SC_046,0.8883,19872,0.9543,41,hospital_110,1.4559,S_214,0.8365,False
8174,-37.76446915,144.78637700000004,17 Minvi Tce,CAIRNLEA,6560000,house,2009,3,2,2,SC_107,4.5322,20003,2.1834,31,hospital_057,2.5142,S_159,0.7323,True
7636,-37.734008,144.825288,76 Driscolls Road,KEALBA,4796000,house,2015,4,2,2,SC_107,1.7431,20002,2.5289,33,hospital_005,3.0824,S_222,1.9866,False
94563,-37.92220800000001,145.02951299999995,10 Hillside Avenue,BENTLEIGH,8700000,house,2012,2,1,2,SC_046,2.0752,19938,0.6171,40,hospital_110,1.3661,S_107,1.145,False
29552,-37.769364,145.010256,17 Hakatere Street,NORTHCOTE,13664000,house,2012,3,1,1,SC_001,2.7795,19929,1.1078,16,hospital_035,0.749,S_105,2.1181,True
64416,-37.7992117,145.2915875,4 Donald Street,CROYDON,6720000,house,2012,2,1,1,SC_022,0.7485,19878,1.054,0,hospital_164,3.3058,S_055,0.7612,False
20730,-37.772706,144.951602,2 Hennessy Street,BRUNSWICK,14140000,house,2014,3,1,3,SC_011,3.3007,19969,0.6756,0,hospital_102,1.0224,S_074,0.8069,True
89240,-37.9610593,145.01288469999997,16 Edward Street,SANDRINGHAM,10350000,house,2014,4,2,2,SC_079,2.8078,19948,1.4001,29,hospital_058,0.525,S_214,1.9213,False
28363,-37.7934761,144.97781369999996,60 Alexandra Parade,FITZROY,5120000,house,2008,5,2,1,SC_008,2.162,19975,1.5943,11,hospital_188,1.2859,S_200,0.5156,False
89864,-37.969298,145.04249,11 Banool Street,CHELTENHAM,16800000,house,2014,4,3,2,SC_079,2.2482,19866,1.0993,37,hospital_055,1.4553,S_023,1.6023,True
89554,-37.959847,145.02536899999996,47 Spring Street,SANDRINGHAM,20720000,house,2016,4,2,2,SC_079,1.8227,19872,1.9274,41,hospital_058,0.6025,S_214,1.6315,True
6589,-37.780774,144.816825,3/15 McLean Street,ALBION,4680000,house,2015,3,1,1,SC_102,1.4835,20004,0.7754,28,hospital_174,1.4232,S_080,1.4347,False
29169,-37.778001,145.013876,1 Linley Court,NORTHCOTE,10725000,house,2011,3,1,2,SC_001,2.7006,19930,0.2967,18,hospital_029,1.5499,S_219,2.6797,False
87969,-37.943027,145.019688,83 David Street,HAMPTON,9273000,house,2012,3,1,2,SC_046,1.6841,19948,1.557,29,hospital_036,1.4038,S_214,0.3415,False
91371,-37.97379,145.040795,2 Comas Road,BEAUMARIS,11200000,house,2012,3,1,2,SC_079,2.7449,19866,1.4458,37,hospital_055,1.2045,S_023,2.0695,False
39433,-37.713482,145.032374,107 Dunne Street,KINGSBURY,6150000,house,2013,3,1,2,SC_047,2.7964,20009,2.1067,0,hospital_025,1.0272,S_225,1.312,True
73238,-37.861,145.263371,20 Dixon Court,BORONIA,6412000,house,2014,3,1,0,SC_049,5.4194,19869,1.8478,0,hospital_002,0.747,S_024,1.8657,True
47397,-37.7102914,145.13927180000005,62 Ryans Road,ELTHAM,9095000,house,2011,3,2,2,SC_051,4.4573,19987,0.8358,44,hospital_075,2.9975,S_194,1.7305,True
17847,-37.69865799,144.91734309999995,9 Rowan Street,GLENROY,4130000,house,2008,3,1,2,SC_059,3.0808,20031,0.4141,34,hospital_184,4.9768,S_209,1.0058,False
55790,-37.83935200000001,145.078082,55 Glyndon Road,CAMBERWELL,14000000,house,2013,4,2,2,SC_099,2.4284,19850,0.5613,32,hospital_168,2.1632,S_160,0.7889,False
1213,-37.806652,144.893109,58 Charles Street,SEDDON,11214000,house,2016,3,1,0,SC_043,3.1333,19997,0.3456,14,hospital_056,1.6232,S_201,0.7861,True
74435,-37.89812469,145.0535889,1/102 Neville Street,CARNEGIE,5775000,house,2009,3,1,1,SC_041,1.5538,19941,1.3519,35,hospital_159,2.922,S_015,1.1885,False
45917,-37.72365189,145.1234283,2/1 Elizabeth Street,MONTMORENCY,7815000,house,2009,3,2,1,SC_009,5.4361,19986,0.9452,40,hospital_075,2.5773,S_210,2.9334,False
17453,-37.701783,144.935902,56 Maude Avenue,GLENROY,4308000,house,2014,2,1,3,SC_030,3.6317,20032,1.6736,32,hospital_184,5.264,S_004,0.6346,False
83088,-37.885552,145.255628,2/73 King Parade,KNOXFIELD,7644000,house,2014,3,2,2,SC_049,4.7255,19868,3.5076,0,hospital_049,3.4917,S_027,2.534,True
14733,-37.747012,144.906922,7 Collins Street,ESSENDON,7416000,house,2012,3,1,0,SC_082,1.455,20036,1.234,23,hospital_184,0.5492,S_197,0.4166,False
47115,-37.71866226,145.1499786,38 York Street,ELTHAM,5236000,house,2008,4,2,3,SC_051,5.0817,19987,0.6,44,hospital_075,4.1664,S_194,0.8155,False
15557,-37.744815,144.889917,14 Vaynor Street,NIDDRIE,16650000,house,2016,3,1,1,SC_082,1.8311,20037,2.6276,20,hospital_184,1.3633,S_197,1.8086,True
76891,-37.91618729,145.12428280000003,5 Prince Street,CLAYTON,4376000,house,2008,3,2,2,SC_087,4.8597,19915,1.0013,39,hospital_065,0.3321,S_169,1.1941,False
49158,-37.815651,145.064696,2 Barnsbury Road,DEEPDENE,36260000,house,2010,5,2,2,SC_099,1.131,19892,1.1809,0,hospital_064,1.6363,S_113,1.5925,True
29746,-37.771577,145.008797,23 Thames Street,NORTHCOTE,20640000,house,2016,3,2,3,SC_001,2.9317,19929,0.8486,16,hospital_035,0.9683,S_105,2.3275,True
19448,-37.66526413,144.9365845,454 BARRY ROAD,COOLAROO,8080000,house,2008,3,1,0,SC_072,2.0523,19960,0.8994,0,hospital_104,2.1586,S_153,1.9416,True
68551,-37.857046,145.024621,48 Stuart Street,ARMADALE,19800000,house,2012,4,2,0,SC_038,2.3308,19945,0.4701,23,hospital_092,0.8316,S_235,0.5149,False
4292,-37.838092,144.865522,25 Charlotte Street,NEWPORT,4500000,house,2012,3,1,3,SC_033,2.0826,19994,1.6706,20,hospital_141,3.5436,S_056,1.7039,False
82532,-37.912043,145.254885,11 Trevena Close,ROWVILLE,7540000,house,2013,3,2,2,SC_049,5.0804,19868,4.8973,0,hospital_026,4.7054,S_027,2.5272,False
72199,-37.8501358,145.24932859999996,21 Tamar Street,BAYSWATER,3360000,house,2005,3,1,2,SC_032,4.5353,19870,1.8997,0,hospital_002,1.7603,S_139,1.7376,False
651,-37.802562,144.907528,22/41 Moreland Street,FOOTSCRAY,5440000,house,2015,3,3,2,SC_011,2.3708,20025,0.4148,14,hospital_003,1.9855,S_201,0.8612,False
73151,-37.85405,145.272596,2 Duncan Avenue,BORONIA,4708000,house,2012,3,1,1,SC_049,5.4764,19869,1.2576,0,hospital_002,0.4188,S_139,1.3315,False
76190,-37.90688400000001,145.110376,41 Berkeley Street,HUNTINGDALE,9200000,house,2016,3,1,2,SC_087,3.2586,19916,0.8407,36,hospital_166,0.9327,S_169,2.2414,False
64948,-37.80899,145.272741,9  Morris Road,CROYDON,5840000,house,2014,4,2,2,SC_022,1.4291,19878,1.6594,0,hospital_164,1.5144,S_055,1.3349,False
61279,-37.7860866,145.24822580000003,136 Wonga Road,RINGWOOD,13118000,house,2012,4,3,2,SC_022,3.3902,19879,2.8862,0,hospital_164,2.4981,S_157,1.3769,True
70974,-37.84496689,145.2362824,1 Sullivan Court,WANTIRNA,4680000,house,2008,4,3,2,SC_032,3.6456,19871,1.9905,0,hospital_179,0.9167,S_139,2.6997,False
33647,-37.703384,145.016697,113 Cheddar Road,RESERVOIR,6540000,house,2015,3,1,2,SC_047,4.0942,20009,0.8077,0,hospital_139,2.2775,S_225,2.62,True
34770,-37.713909,144.981652,355 Edwardes Street,RESERVOIR,5840000,house,2010,2,1,1,SC_103,3.3708,19962,1.8604,0,hospital_139,1.5011,S_030,1.7548,False
16966,-37.704915,144.935568,29 Melbourne Avenue,GLENROY,4520000,house,2014,3,2,2,SC_030,3.3178,20032,1.6164,32,hospital_184,4.9525,S_004,0.3648,False
72064,-37.844656,145.256899,15 Kumala Road,BAYSWATER,3320000,house,2012,3,1,1,SC_032,4.3254,19870,1.0401,0,hospital_002,1.5596,S_139,0.8981,False
13897,-37.74888611,144.9210663,16 Ardoch Street,ESSENDON,15840000,house,2008,5,3,2,SC_082,2.1474,20036,0.1869,23,hospital_184,1.5871,S_197,1.0522,True
55703,-37.84350900000001,145.054769,454 Burke Road,CAMBERWELL,14040000,house,2013,3,1,2,SC_099,2.1528,19912,1.1215,17,hospital_168,0.2752,S_113,1.6348,False
5172,-37.866498,144.83383600000005,38B Davies Street,ALTONA,7344000,house,2016,3,1,1,SC_033,4.5764,19926,0.3754,30,hospital_141,5.0934,S_128,0.3763,True
73948,-37.860441,145.263073,7 Rathmullen Road,BORONIA,6900000,house,2015,3,1,1,SC_049,5.4813,19869,1.873,0,hospital_002,0.7128,S_024,1.8954,True
14919,-37.740204,144.922191,1 Bournian Avenue,STRATHMORE,18620000,house,2015,5,2,2,SC_082,1.6185,20035,0.5879,25,hospital_184,1.5247,S_197,1.1392,True
62601,-37.829893,145.242027,17 Balfour Avenue,HEATHMONT,6825000,house,2011,3,1,0,SC_032,2.2338,19871,0.2828,0,hospital_105,2.0898,S_190,2.2907,False
8097,-37.766774,144.788323,14 Clarian Street,CAIRNLEA,5600000,house,2015,4,2,2,SC_102,4.3416,20003,2.1355,31,hospital_057,2.4074,S_159,0.9323,False
43441,-37.705669,145.082129,11 Bungay Street,WATSONIA,4000000,house,2011,3,2,2,SC_017,5.7035,19984,0.6067,34,hospital_075,2.0915,S_020,1.5834,False
54801,-37.84927800000001,145.090422,1 Barkly Street,CAMBERWELL,10725000,house,2011,4,2,2,SC_042,3.1255,19849,0.9075,34,hospital_089,0.9644,S_112,1.9329,False
80287,-37.992027,145.175983,45 Locharn Crescent,KEYSBOROUGH,6253000,house,2014,4,2,1,SC_057,0.2452,19889,2.0562,51,hospital_096,0.4716,S_079,0.3305,False
43280,-37.719972,145.08771299999995,71 Yallambie Road,MACLEOD,10234000,house,2011,3,2,2,SC_017,4.3274,19984,1.0611,34,hospital_075,2.299,S_020,2.0188,True
86190,-37.925701,145.002647,157 Were Street,BRIGHTON,22950000,house,2015,3,3,2,SC_046,3.4903,19950,1.188,24,hospital_156,1.8312,S_088,1.2731,True
87225,-37.908319,145.008294,904 Hampton Street,BRIGHTON,11770000,house,2011,3,2,2,SC_046,4.36,19952,0.629,20,hospital_126,1.2986,S_151,0.3661,False
94833,-37.913871,145.034524,15 Fitzroy Street,MCKINNON,15990000,house,2015,3,1,2,SC_046,2.8726,19939,0.4512,38,hospital_126,1.9878,S_107,0.9164,True
35782,-37.719712,145.00811000000004,92 Delaware Street,RESERVOIR,8173000,house,2010,3,2,2,SC_103,2.2776,20010,0.3296,0,hospital_139,0.9167,S_225,1.9056,True
54725,-37.816542,145.04508,8 Corsewall Close,HAWTHORN,4050000,house,2014,3,1,3,SC_083,0.9421,19903,0.6554,23,hospital_064,0.9185,S_208,0.9278,False
82992,-37.884715,145.24483500000005,104 Allister Avenue,KNOXFIELD,5400000,house,2013,3,1,2,SC_049,5.6733,19869,4.4015,0,hospital_002,3.8482,S_027,1.9066,True
71232,-37.849748,145.23198,2 Barnsdale Court,WANTIRNA,4068000,house,2012,3,1,1,SC_032,4.1276,19871,2.6288,0,hospital_179,0.3927,S_226,2.1587,False
38270,-37.781404,145.019169,39 Arthur Street,FAIRFIELD,17680000,house,2015,3,1,1,SC_001,2.4932,19930,0.3185,18,hospital_029,0.9879,S_219,2.466,True
59229,-37.821328,145.198508,1/2 Rupert Street,MITCHAM,3672000,house,2013,2,1,1,SC_088,1.6796,19900,0.6831,0,hospital_010,1.271,S_202,1.9808,False
32060,-37.73389,145.024815,176 Albert Street,PRESTON,7000000,house,2016,3,1,2,SC_047,0.7098,20011,2.0345,0,hospital_090,2.3628,S_225,1.0574,False
84385,-37.857869,145.003693,8 Jessamine Avenue,PRAHRAN,22880000,house,2012,3,2,2,SC_066,1.4751,19957,1.0444,11,hospital_063,0.5332,S_115,1.1023,True
87820,-37.933618,145.024999,556 Bluff Road,HAMPTON,12112000,house,2015,3,1,2,SC_046,1.3421,19937,1.0339,39,hospital_110,1.0374,S_214,1.3371,False
24998,-37.585423,144.91603600000005,10 Gippsland Way,CRAIGIEBURN,4950000,house,2014,3,1,2,SC_016,0.852,40221,3.0202,45,hospital_104,7.2764,S_178,1.85,True
62650,-37.827889,145.259693,1A Poulton Close,HEATHMONT,5120000,house,2015,3,2,2,SC_032,3.1954,19871,1.3318,0,hospital_164,2.2695,S_139,1.7941,False
54786,-37.820093,145.025064,92 Elgin Street,HAWTHORN,22780000,house,2015,3,1,0,SC_083,0.9264,19905,0.2711,18,hospital_086,0.5212,S_208,0.9143,True
7376,-37.748288,144.767221,29 McCann Drive,ALBANVALE,5984000,house,2014,3,1,2,SC_048,2.8341,20002,2.9148,33,hospital_057,4.3772,S_070,0.6231,True
63192,-37.779016,145.299845,1 Hubble Road,CROYDON,8496000,house,2015,3,2,2,SC_084,2.6329,19877,1.2759,0,hospital_164,5.039,S_181,2.5145,True
72529,-37.84206772,145.2574616,621 Mountain Highway,BAYSWATER,10395000,house,2009,3,2,1,SC_032,4.1222,19870,0.9392,0,hospital_002,1.7645,S_139,0.8349,True
21228,-37.774988,144.953322,417 Barkly Street,BRUNSWICK,9090000,house,2012,3,2,0,SC_011,3.3732,19969,0.4747,0,hospital_102,0.9442,S_138,0.8068,False
39875,-37.71497700000001,145.027797,18 Parkland Grove,KINGSBURY,6000000,house,2010,3,2,3,SC_047,2.6335,20009,1.7924,0,hospital_025,1.3721,S_225,1.1088,True
50048,-37.775616,145.092648,21 The Crest,BULLEEN,2070000,house,2009,3,1,1,SC_009,1.1113,19935,3.4888,26,hospital_194,2.0018,S_154,1.0274,False
82480,-37.989859,145.245319,97 Ash Street,DOVETON,3160000,house,2013,3,1,2,SC_077,1.7263,19888,3.1227,54,hospital_119,2.3713,S_195,1.7434,False
62254,-37.79610825,145.2412872,7 Sunhill Avenue,RINGWOOD,6720000,house,2009,4,2,3,SC_032,2.1532,19879,1.9314,0,hospital_105,1.6804,S_157,1.2194,False
85034,-37.875312,144.983072,58A Milton Street,ELWOOD,12080000,house,2015,3,2,1,SC_015,0.7659,19955,1.0709,15,hospital_103,1.8103,S_017,0.8494,False
33111,-37.73846054,145.0169525,7 Dean Street,PRESTON,7100000,house,2009,4,2,2,SC_047,1.1767,20012,1.4466,0,hospital_090,2.78,S_084,1.251,False
58876,-37.81264877,145.1735382,305 Springfield Road,NUNAWADING,5720000,house,2008,3,1,1,SC_002,0.7705,19899,0.8934,0,hospital_070,1.8101,S_202,1.2756,False
89717,-37.9489545,145.0209613,94 Grange Road,SANDRINGHAM,12525000,house,2011,4,2,3,SC_079,1.7654,19948,1.4477,29,hospital_058,1.4107,S_214,0.4071,False
24277,-37.69487381,144.9719544,29 Somerlayton Crescent,FAWKNER,3445000,house,2009,3,1,2,SC_030,4.599,19961,1.3209,0,hospital_139,3.4158,S_161,1.3442,False
72555,-37.85364600000001,145.255721,7 Clifford Street,BAYSWATER,9095000,house,2012,4,2,2,SC_032,5.13,19870,1.7177,0,hospital_002,1.114,S_139,1.5415,True
69055,-37.861333,145.03055,30 Edsall Street,MALVERN,8055000,house,2012,2,1,0,SC_023,1.9771,19944,0.5587,19,hospital_157,0.2749,S_235,0.1917,False
94536,-37.933611,145.04252,1/525 South Road,BENTLEIGH,6000000,house,2012,2,1,1,SC_046,0.7511,19937,0.5143,39,hospital_110,0.5066,S_107,1.5679,False
49009,-37.803228,145.078931,134 Belmore Road,BALWYN,13040000,house,2012,4,3,2,SC_099,2.9834,19893,2.3749,0,hospital_064,2.7614,S_137,1.684,True
42514,-37.740551,145.081788,68 Graham Road,VIEWBANK,5360000,house,2014,3,2,2,SC_017,2.0568,19936,1.4016,28,hospital_066,2.4038,S_100,2.382,False
44109,-37.695784,145.123822,11  Nulgarrah Cres,GREENSBOROUGH,7840000,house,2014,3,1,2,SC_051,4.0083,19985,1.6459,38,hospital_075,1.8929,S_051,1.6103,True
71602,-37.862638,145.21956200000002,5 Benwerrin Drive,WANTIRNA,7800000,house,2011,4,2,2,SC_067,4.9552,19871,4.4067,0,hospital_008,1.5983,S_226,0.4746,True
42279,-37.74515,145.061849,46 Lower Plenty Road,ROSANNA,6840000,house,2014,3,1,1,SC_017,1.3195,19936,0.4546,28,hospital_066,1.1245,S_100,1.6638,False
5235,-37.86951447,144.82434080000004,5 Romawi Street,ALTONA,7140000,house,2009,3,1,1,SC_033,5.16,19926,0.5354,30,hospital_141,5.9601,S_128,0.5251,False
34015,-37.720465,144.999009,17 Wright Street,RESERVOIR,3162500,house,2013,2,1,1,SC_103,2.144,20010,0.8083,0,hospital_139,0.3332,S_030,1.698,False
12614,-37.70338821,144.74993899999996,2/57 Allenby Road,HILLSIDE,3324000,house,2008,3,2,1,SC_048,3.3747,20000,2.1498,39,hospital_057,8.5271,S_163,1.0631,False
39724,-37.715251,145.03429599999996,15 Eagle Avenue,KINGSBURY,6608000,house,2013,3,1,2,SC_047,2.6171,20009,2.3306,0,hospital_025,0.8048,S_225,1.1816,True
55603,-37.837881,145.07516,39 Cooloongatta Road,CAMBERWELL,10890000,house,2012,3,1,2,SC_099,2.1301,19851,0.4908,30,hospital_168,1.9923,S_160,0.4864,False
5141,-37.860806,144.824829,30 McIntyre Drive,ALTONA,9088000,house,2014,4,2,3,SC_033,4.2606,19926,0.8231,30,hospital_141,5.8673,S_128,0.9208,True
9886,-37.784027,144.92695700000004,1 John Street,FLEMINGTON,7452000,house,2010,2,1,0,SC_011,0.969,20040,0.4082,14,hospital_007,1.0846,S_086,0.36,False
43911,-37.717907,145.091035,7 Shannon Crescent,WATSONIA,6591000,house,2015,3,1,2,SC_017,4.6567,19984,1.0025,34,hospital_075,1.9311,S_020,1.672,True
40130,-37.693057,145.056531,24 Benjamin Close,BUNDOORA,3200000,house,2010,3,1,2,SC_062,5.2662,19984,3.1203,34,hospital_041,0.5914,S_155,0.6452,False
2154,-37.780017,144.867255,31 Radio Street,MAIDSTONE,6336000,house,2014,4,2,2,SC_043,1.6003,20022,2.1744,21,hospital_056,2.2154,S_131,1.4422,False
33900,-37.700788,145.034464,151 Darebin Boulevard,RESERVOIR,7000000,house,2014,4,3,2,SC_047,4.2194,20008,2.0951,0,hospital_025,1.9577,S_155,1.8114,True
29809,-37.775194,144.991423,26 Gordon Grove,NORTHCOTE,12460000,house,2014,2,1,0,SC_103,4.0708,20017,0.3252,0,hospital_035,1.9895,S_138,2.5619,True
23596,-37.61075,144.908671,35 Candlebark Drive,GREENVALE,6215000,house,2016,4,2,2,SC_016,2.0412,40221,3.2134,45,hospital_104,4.5658,S_178,2.9097,False
62133,-37.82219600000001,145.22861,6 City Road,RINGWOOD,6960000,house,2011,3,1,2,SC_032,1.0513,19902,0.7031,0,hospital_105,1.7702,S_040,1.1404,True
63038,-37.826901,145.234342,6 Woodlands Road,HEATHMONT,7125000,house,2012,3,1,1,SC_032,1.6482,19871,0.9118,0,hospital_105,1.9154,S_040,1.7352,False
7335,-37.735064,144.820411,218 Sunshine Ave,KEALBA,4875000,house,2011,3,1,0,SC_107,1.4351,20002,2.0981,33,hospital_005,2.8762,S_222,1.636,False
14244,-37.754474,144.897142,3/318 Buckley Street,ESSENDON,9450000,house,2013,3,3,2,SC_085,2.2202,20037,1.6858,20,hospital_184,1.5245,S_197,1.6126,False
90414,-37.96678,145.084261,28 Benkel Avenue,CHELTENHAM,8505000,house,2011,3,2,2,SC_003,0.6421,19865,2.3722,39,hospital_109,0.953,S_003,2.0237,False
63920,-37.784962,145.269753,21 Arundel Street,CROYDON,6710000,house,2012,3,2,2,SC_022,1.9611,19878,1.5066,0,hospital_164,2.827,S_181,1.5775,False
10968,-37.794097,144.92078600000005,93 Westbourne Road,KENSINGTON,7860000,house,2010,4,2,1,SC_011,1.3667,20026,0.7318,10,hospital_114,0.8424,S_086,0.9913,False
16115,-37.702634,144.896123,6 Primrose Court,GOWANBRAE,6510000,house,2015,4,2,2,SC_010,1.5098,20032,1.8701,32,hospital_184,4.4853,S_209,2.4836,True
50198,-37.768275,145.088849,36 Summit Drive,BULLEEN,16160000,house,2014,3,2,2,SC_009,0.3977,19935,2.7745,26,hospital_193,2.3821,S_154,0.2809,True
31692,-37.751139,145.019831,101 Raglan Street,PRESTON,3160000,house,2011,2,1,1,SC_047,1.6781,20013,1.8398,0,hospital_039,1.6678,S_105,1.4259,False
84875,-37.87726593,144.9794769,320 Barkly Street,ELWOOD,12740000,house,2008,3,2,1,SC_015,0.961,19955,1.393,15,hospital_103,2.1469,S_017,0.9804,False
29623,-37.773668,145.007785,19 Northcote Street,NORTHCOTE,9610000,house,2011,3,1,1,SC_001,3.06,19929,0.6157,16,hospital_035,1.1975,S_105,2.5419,False
35892,-37.676636,145.028527,166 The Boulevard,THOMASTOWN,9600000,house,2016,4,2,2,SC_062,5.738,20007,1.3212,0,hospital_053,2.9843,S_228,1.1036,True
47184,-37.71270752,145.13797,41 Meruka Drive,ELTHAM,7800000,house,2009,3,2,2,SC_051,4.7497,19987,0.8726,44,hospital_075,2.9503,S_194,1.7822,False
77942,-37.928318,145.153366,32 Wilma Avenue,MULGRAVE,4995000,house,2010,3,1,0,SC_073,3.7706,19914,1.7061,42,hospital_076,2.9703,S_148,2.718,False
2976,-37.80988312,144.88842769999997,18 O'Farrell Street,YARRAVILLE,6877000,house,2009,2,1,1,SC_043,2.9779,19997,0.6445,14,hospital_056,1.875,S_201,1.3208,False
55207,-37.836714,145.060585,2 Alma Road,CAMBERWELL,43860000,house,2013,4,3,2,SC_099,1.3952,19851,0.8611,30,hospital_168,1.144,S_113,0.856,True
45027,-37.695307,145.099168,4 Mada Close,GREENSBOROUGH,6500000,house,2016,3,2,1,SC_062,5.0037,19985,1.2514,38,hospital_075,1.2425,S_210,0.9184,False
74024,-37.86890411,145.2962647,8 Sassafras Court,BORONIA,7200000,house,2008,5,3,2,SC_049,3.0277,19869,1.4054,0,hospital_049,1.3828,S_146,1.1851,True
96315,-37.909394,145.026298,9 McKinnon Road,MCKINNON,13580000,house,2010,3,1,1,SC_046,3.5142,19940,1.0589,36,hospital_126,1.1522,S_107,1.7887,False
94581,-37.916593,145.04346,10 Seaview Avenue,BENTLEIGH,10230000,house,2011,2,1,2,SC_046,2.5892,19939,0.5752,38,hospital_110,1.9236,S_107,0.348,False
35516,-37.71226501,145.0014343,72 Leamington Street,RESERVOIR,3600000,house,2009,2,1,0,SC_103,3.0414,20010,0.7102,0,hospital_139,0.6609,S_030,2.4899,False
90500,-37.954554,145.067401,3 Warren Road,CHELTENHAM,7425000,house,2016,3,1,2,SC_079,2.3886,19866,1.756,37,hospital_109,1.1054,S_023,1.154,False
35652,-37.730121,145.000212,81 Spring Street,RESERVOIR,9800000,house,2014,3,1,2,SC_103,1.0644,20011,0.2956,0,hospital_139,1.4102,S_085,0.8139,True
79030,-37.93675232,145.16545109999996,39 Grace Street,SPRINGVALE,13175000,house,2009,3,1,2,SC_073,3.842,19913,1.7681,44,hospital_124,4.0219,S_067,2.0243,True
65040,-37.803961,145.312599,1/15 Mountain View Road,KILSYTH,4576000,house,2012,3,2,1,SC_022,2.6526,19877,2.1387,0,hospital_164,5.0316,S_224,0.2832,False
34024,-37.708658,145.014261,175 Rathcown Road,RESERVOIR,5985000,house,2016,3,1,1,SC_103,3.6092,20009,0.4263,0,hospital_139,1.7376,S_225,2.2127,False
71953,-37.858542,145.266165,1/6 Margaret Avenue,BAYSWATER,3960000,house,2013,3,1,2,SC_049,5.4411,19869,1.6154,0,hospital_002,0.3854,S_024,1.6559,False
82622,-37.911752,145.27293500000005,19 Adam Cl,ROWVILLE,11606000,house,2016,4,2,2,SC_049,3.6524,19867,3.7074,0,hospital_150,3.8217,S_199,2.9038,True
65511,-37.805267,145.31903799999995,9 Glendale Court,KILSYTH,10920000,house,2011,5,2,3,SC_022,3.2368,19877,2.3574,0,hospital_164,5.587,S_224,0.8397,True
77412,-37.926244,145.186032,11 Lords Avenue,MULGRAVE,10962000,house,2012,5,2,2,SC_073,2.2245,19913,3.8585,44,hospital_161,2.7474,S_067,1.108,True
73021,-37.84859467,145.2884522,16 Garden Avenue,BORONIA,3185000,house,2006,3,1,2,SC_049,5.3881,19869,1.3675,0,hospital_049,1.6384,S_024,1.4959,False
28948,-37.809225,144.99819399999996,27 Lithgow St,ABBOTSFORD,9680000,house,2011,3,1,2,SC_068,2.3789,19977,0.5175,8,hospital_134,0.5542,S_076,0.234,False
57662,-37.81383,145.14253200000005,15 Ernest Street,BLACKBURN,21150000,house,2016,4,2,2,SC_037,1.861,19897,0.7902,0,hospital_154,2.0029,S_147,1.9383,True
49979,-37.76686096,145.0834961,18 St Andrews Crescent,BULLEEN,10846000,house,2009,4,2,2,SC_009,0.7529,19935,2.284,26,hospital_004,2.2503,S_154,0.6688,True
69536,-37.86093903,145.10308840000005,13 Vannam Drive,ASHWOOD,7480000,house,2009,3,1,2,SC_042,2.0905,19840,1.6165,28,hospital_089,0.8772,S_112,1.0234,False
87380,-37.945099,145.018381,15 Conifer Street,HAMPTON,17280000,house,2014,3,1,1,SC_046,1.86,19948,1.3456,29,hospital_036,1.3213,S_214,0.331,True
47013,-37.73271942,145.14472959999995,3 Rodda Parade,ELTHAM,6230000,house,2009,3,2,2,SC_009,5.9202,19987,2.1512,44,hospital_075,4.5981,S_194,2.2926,False
38895,-37.763936,145.039253,41 Ford Street,IVANHOE,15200000,house,2014,3,1,2,SC_001,0.496,19933,0.7746,22,hospital_039,0.7485,S_219,0.527,True
45605,-37.699268,145.09705300000005,92 Hailes Street,GREENSBOROUGH,3680000,house,2013,3,1,2,SC_062,5.3945,19985,1.1154,38,hospital_075,1.0141,S_210,0.647,False
30551,-37.763511,145.00499,1/73 Darebin Road,THORNBURY,5525000,house,2013,2,1,0,SC_103,2.6769,20015,0.7013,0,hospital_035,0.2601,S_105,1.3899,False
47674,-37.7961535,145.02850149999998,1 Collins Street,KEW,22400000,house,2011,4,2,2,SC_083,2.7775,19931,1.9918,20,hospital_029,0.8487,S_039,1.0905,True
86446,-37.917622,144.994589,27 Burrows Street,BRIGHTON,11900000,house,2011,2,1,2,SC_046,4.5487,19951,0.315,22,hospital_156,0.7037,S_009,0.2791,False
24351,-37.699363,144.972353,35 Lowson Street,FAWKNER,4040000,house,2015,3,1,2,SC_030,4.1666,19961,1.1961,0,hospital_139,3.0384,S_161,1.6544,False
83632,-37.849686,144.988283,2 Burns Street,PRAHRAN,9360000,house,2015,2,1,0,SC_066,0.5358,19958,0.1399,9,hospital_155,0.4142,S_115,1.504,False
56881,-37.843933,145.100276,71 Somers Street,BURWOOD,6800000,house,2010,4,3,3,SC_037,3.3864,19849,1.9339,34,hospital_089,1.5952,S_112,2.5702,False
86286,-37.902673,144.98908,2 Avonbury Court,BRIGHTON,26160000,house,2013,4,3,2,SC_015,3.8538,19952,1.2133,20,hospital_198,0.9308,S_150,1.2588,True
81486,-37.99775314,145.2091827,71 Hammond Road,DANDENONG,5110000,house,2008,3,1,2,SC_117,1.1298,19888,0.8679,54,hospital_119,1.6466,S_184,1.3486,False
70605,-37.88423538,145.105896,2 Iskandar Court,CHADSTONE,6640000,house,2007,2,1,2,SC_042,1.479,19840,1.3027,28,hospital_166,1.6724,S_026,1.913,False
68385,-37.854547,145.01972,22 Royal Crescent,ARMADALE,42500000,house,2014,4,2,1,SC_038,1.8537,19945,0.2149,23,hospital_132,0.9536,S_235,1.0238,True
11849,-37.712526,144.822464,4 Melville Close,KEILOR,8250000,house,2016,4,2,3,SC_107,2.1132,20001,3.1426,36,hospital_057,5.3852,S_222,2.4006,True
37099,-37.649676,145.05921999999995,22 Yvette Crt,EPPING,1560000,house,2010,4,2,2,SC_062,2.3271,45795,0.691,0,hospital_053,3.7717,S_096,1.3339,False
45924,-37.711466,145.13118400000005,2/135 Sherbourne Road,MONTMORENCY,4390000,house,2013,3,1,1,SC_051,4.9016,19986,0.9522,40,hospital_075,2.3385,S_194,2.394,False
70876,-37.881562,145.098954,72a Waverley Road,CHADSTONE,8876000,house,2015,3,1,1,SC_042,0.8056,19839,1.0798,26,hospital_166,2.0643,S_026,1.4179,False
10435,-37.7833286,144.9331341,34 Church Street,FLEMINGTON,11220000,house,2012,2,1,0,SC_011,1.4987,20040,0.576,14,hospital_102,1.0868,S_086,0.6303,True
9272,-37.844585,144.728198,118 Marquands Road,TRUGANINA,6050000,house,2016,4,2,2,SC_053,2.1248,46468,3.2834,32,hospital_073,5.6164,S_007,2.856,True
3202,-37.81694412,144.89323430000005,25 Schild Street,YARRAVILLE,7040000,house,2008,2,1,0,SC_043,3.8085,19996,0.3147,15,hospital_056,2.722,S_201,1.8513,False
41001,-37.68190300000001,145.055532,62 Botanica Boulevard,BUNDOORA,5904000,house,2014,4,3,2,SC_062,4.2772,20007,3.6385,0,hospital_041,1.2493,S_155,1.8707,False
38175,-37.776052,145.030406,27 Kelvin Road,ALPHINGTON,19600000,house,2012,4,2,2,SC_001,1.3505,19931,0.2712,20,hospital_039,1.4122,S_219,1.3211,True
43371,-37.718408,145.06925800000005,96 Dunvegan Crescent,MACLEOD,7000000,house,2012,4,2,2,SC_047,4.0964,19983,0.8465,31,hospital_037,2.1317,S_155,2.5339,False
64776,-37.78957748,145.27645869999995,65 Kent Avenue,CROYDON,5100000,house,2009,2,1,1,SC_022,1.208,19878,0.747,0,hospital_164,2.7323,S_181,0.819,False
40699,-37.706708,145.062018,48 Balmoral Avenue,BUNDOORA,5520000,house,2011,3,1,1,SC_047,4.5116,19984,1.9752,34,hospital_037,0.6904,S_155,1.0918,False
74741,-37.884392,145.051807,2 Cosy Gum Road,CARNEGIE,10200000,house,2012,3,1,2,SC_041,0.6034,19920,0.6292,28,hospital_108,2.0801,S_015,0.5457,True
20962,-37.774381,144.969323,29 Horne Street,BRUNSWICK,11648000,house,2015,2,1,1,SC_008,4.1707,19969,0.9356,0,hospital_144,2.0046,S_138,0.6505,False
94287,-37.960135,145.078048,13 Oakmont Crescent,HEATHERTON,8970000,house,2011,5,2,2,SC_003,1.5598,19866,2.1854,37,hospital_109,0.3965,S_023,1.9524,True
31762,-37.741652,144.991124,117 Bruce Street,PRESTON,8613000,house,2012,3,1,2,SC_103,0.9804,20012,0.8912,0,hospital_144,2.3702,S_084,1.1473,True
27249,-37.60820389,144.9325104,53 Northleigh Avenue,CRAIGIEBURN,4928000,house,2009,3,1,3,SC_110,1.2909,40221,1.1892,45,hospital_104,4.8489,S_005,1.283,True
39308,-37.70895386,145.053833,1 Pinjara Lane,BUNDOORA,8370000,house,2008,4,2,2,SC_047,3.8911,19983,2.3288,31,hospital_037,0.856,S_155,1.145,True
60499,-37.83161,145.21183200000004,16 Coringa Close,VERMONT,9126000,house,2015,3,1,2,SC_032,2.5762,19901,1.4178,0,hospital_008,2.3839,S_040,2.6461,True
77870,-37.928215,145.19286699999995,3 Exhibition Drive,MULGRAVE,9650000,house,2012,5,3,2,SC_073,2.5182,19891,4.1076,46,hospital_161,2.1209,S_067,0.9487,True
26768,-37.61014938,144.91613769999995,4 Dulwich Lane,CRAIGIEBURN,4368000,house,2007,3,2,2,SC_016,1.9337,40221,2.5704,45,hospital_104,4.5294,S_178,2.3903,False
54248,-37.8209047,145.043876,20 Selbourne Street,HAWTHORN,5888000,house,2012,2,1,0,SC_083,0.7303,19903,0.24,23,hospital_127,0.9276,S_208,0.7474,False
30774,-37.761487,144.99823899999996,15 Woolton Avenue,THORNBURY,10500000,house,2014,3,1,2,SC_103,2.46,20015,0.309,0,hospital_035,0.8602,S_105,1.2528,True
11179,-37.77166367,144.8756104,17 Nayook Lane,MARIBYRNONG,8175000,house,2008,3,2,2,SC_052,0.9051,20022,3.2668,21,hospital_056,2.5648,S_131,1.1757,True
79880,-37.982725,145.18676299999996,20  Popes Road,KEYSBOROUGH,5150000,house,2013,4,2,2,SC_057,1.6211,19889,0.6541,51,hospital_124,1.4715,S_079,1.7035,False
80759,-37.978625,145.222869,13 Carroll Avenue,DANDENONG,4500000,house,2009,3,1,3,SC_112,1.1646,19888,1.71,54,hospital_033,0.6162,S_183,0.9185,False
57655,-37.832116,145.15653600000005,145 Blackburn Road,BLACKBURN,8100000,house,2012,4,2,2,SC_002,1.9329,19898,1.4583,0,hospital_060,0.1021,S_066,0.8101,False
55513,-37.846025,145.072077,30 Smith Road,CAMBERWELL,4092000,house,2016,5,3,2,SC_099,2.7109,19850,0.3812,32,hospital_168,1.5057,S_160,1.2309,False
95794,-37.914417,145.03999199999996,43 Godfrey Street,BENTLEIGH,12240000,house,2012,4,2,2,SC_046,2.7959,19939,0.4259,38,hospital_110,2.0935,S_107,0.5986,True
13468,-37.696415,144.757551,8 Benjamin Court,SYDENHAM,5236000,house,2014,3,2,2,SC_048,4.3065,20000,1.5558,39,hospital_057,8.7187,S_163,0.5439,True
85182,-37.88147100000001,145.012197,1 Park Street,ELSTERNWICK,37280000,house,2014,5,3,2,SC_023,2.7577,19954,1.0578,17,hospital_080,0.416,S_193,0.8217,True
86901,-37.920229,144.99823999999995,56a Dendy Street,BRIGHTON,28160000,house,2010,4,3,2,SC_046,4.1232,19951,0.5922,22,hospital_156,1.1096,S_009,0.5921,True
7044,-37.784707,144.824219,8/22 Forrest Street,ALBION,2176000,house,2015,2,1,0,SC_102,0.8644,20004,0.7864,28,hospital_174,1.0694,S_080,0.8527,False
86584,-37.917275,145.00546,32 Laburnum Street,BRIGHTON,21360000,house,2015,3,2,2,SC_046,3.8023,19951,0.8391,22,hospital_156,1.3663,S_009,0.8811,True
61072,-37.81015900000001,145.234118,1/26 Suda Avenue,RINGWOOD,4323000,house,2010,2,1,1,SC_032,0.5484,19902,0.782,0,hospital_105,0.7953,S_190,0.3388,False
58104,-37.819266,145.143562,4/12 Frankcom Street,BLACKBURN,5760000,house,2014,3,2,2,SC_037,1.8588,19897,0.3027,0,hospital_060,1.8802,S_018,1.3926,False
153,-37.806758,144.895131,10 Medway Street,SEDDON,5670000,house,2010,3,1,0,SC_011,3.2832,19997,0.2546,14,hospital_003,1.7012,S_201,0.7154,False
54698,-37.8264757,145.03689619999997,7 Urquhart Street,HAWTHORN,27000000,house,2011,5,3,2,SC_083,0.6786,19904,0.559,21,hospital_127,0.2559,S_208,0.7357,True
57514,-37.828885,145.147519,1/6 Molleton Street,BLACKBURN,9618000,house,2015,3,1,1,SC_002,2.3572,19898,1.0054,0,hospital_060,0.8788,S_018,0.2826,False
13062,-37.709635,144.776267,39 Tudor Rose Crescent,SYDENHAM,9200000,house,2013,4,2,2,SC_107,3.3736,20000,0.9646,39,hospital_057,6.5862,S_094,0.8157,True
28849,-37.80261993,144.9952545,162 Vere Street,ABBOTSFORD,12000000,house,2008,2,1,0,SC_068,2.442,19976,0.2501,10,hospital_134,1.2087,S_076,0.7777,True
10260,-37.785036,144.930363,22 Brighton Street,FLEMINGTON,18340000,house,2014,5,3,0,SC_011,1.2856,20040,0.2827,14,hospital_114,1.066,S_086,0.3234,True
74532,-37.900819,145.055686,12 Grandview Grove,CARNEGIE,11310000,house,2013,3,1,2,SC_041,1.8075,19941,1.4367,35,hospital_159,2.5738,S_015,1.4636,True
83338,-37.85686493,144.9958649,1 Atkinson Close,WINDSOR,12760000,house,2008,3,2,2,SC_066,1.0839,19957,0.3485,11,hospital_063,0.2118,S_115,1.2833,True
61444,-37.778263,145.23887,19 Little John Road,WARRANWOOD,10530000,house,2010,4,2,2,SC_032,3.9399,19879,3.8819,0,hospital_164,3.598,S_157,2.5457,False
73002,-37.843203,145.296564,15 Southey Road,BORONIA,9350000,house,2014,4,2,0,SC_022,5.0522,19869,2.1983,0,hospital_049,2.4787,S_146,2.2892,True
36990,-37.65048400000001,145.04868100000004,2 Banker Court,EPPING,6272000,house,2015,3,1,2,SC_062,3.2479,45795,1.6241,0,hospital_053,2.8395,S_096,2.2449,True
35419,-37.7303446,145.0289406,67 Kirby Street,RESERVOIR,6432000,house,2011,3,2,3,SC_047,0.9214,20011,2.314,0,hospital_025,1.9462,S_225,0.6052,True
60421,-37.84466934,145.1958313,11 Glenora Drive,VERMONT,5720000,house,2009,4,2,2,SC_088,3.1626,19900,2.987,0,hospital_008,2.7742,S_202,2.8832,False
65559,-37.782214,145.329802,1/11 Winifred Road,MOOROOLBARK,6687000,house,2011,3,1,1,SC_084,3.0208,19877,1.5566,0,hospital_113,3.1476,S_168,2.7606,False
2104,-37.780885,144.867625,29B Dunedin Street,MAIDSTONE,12597000,house,2014,4,3,3,SC_043,1.5201,20022,2.0855,21,hospital_056,2.1278,S_149,1.5204,True
67930,-37.846399,145.030396,2 Leicester Square,TOORAK,36000000,house,2016,2,2,2,SC_038,2.0516,19910,0.7718,13,hospital_157,1.8411,S_235,1.5404,True
32826,-37.745216,145.02182,47 Albert Street,PRESTON,4920000,house,2012,3,1,1,SC_047,1.0537,20013,1.9074,0,hospital_039,2.1691,S_105,1.7286,False
75877,-37.903854,145.08674399999995,2 Queens Avenue,OAKLEIGH,10656000,house,2012,3,1,1,SC_087,1.7769,19917,0.4112,34,hospital_166,1.7648,S_167,1.7767,False
65805,-37.79168,145.31825600000005,15 St James Park Rise,MOOROOLBARK,7560000,house,2014,4,2,2,SC_022,3.2022,19877,0.9276,0,hospital_113,4.6111,S_224,1.3562,True
46548,-37.712834,145.160316,13 Barriedale Court,ELTHAM,11700000,house,2013,4,3,2,SC_051,4.3602,19987,1.1031,44,hospital_075,4.8712,S_194,0.3158,True
7041,-37.78406,144.840329,8 Wilkinson Road,SUNSHINE,7425000,house,2014,3,1,2,SC_102,0.6249,20021,0.8234,25,hospital_174,0.987,S_080,0.6913,True
85073,-37.876792,144.99128330000005,7 Byron Street,ELWOOD,9696000,house,2011,3,2,2,SC_015,1.2947,19955,0.3611,15,hospital_009,1.2973,S_133,0.4483,False
59945,-37.808369,145.185222,4 Mountfield Road,MITCHAM,4888000,house,2009,3,1,2,SC_088,1.3168,19900,1.2265,0,hospital_070,0.7727,S_202,1.9025,False
88864,-37.952083,145.042116,4/1-5 Highett Grove,HIGHETT,6960000,house,2015,2,2,1,SC_079,0.3409,19872,0.4078,41,hospital_082,1.5913,S_069,0.3411,False
91302,-37.976654,145.050933,16 Alfred Street,BEAUMARIS,13700000,house,2010,4,3,2,SC_079,3.1835,19866,1.1582,37,hospital_055,0.3829,S_011,1.1474,False
72888,-37.84735107,145.2940369,12 New Street,BORONIA,3880000,house,2009,3,1,0,SC_049,5.385,19869,1.6871,0,hospital_049,1.9676,S_146,1.7771,False
69183,-37.861067,145.03192,49 Edsall Street,MALVERN,19720000,house,2014,3,1,0,SC_023,1.9396,19944,0.6217,19,hospital_157,0.2179,S_235,0.2812,True
29063,-37.807783,144.994646,51 Charles Street,ABBOTSFORD,3487000,house,2014,3,2,1,SC_068,2.1306,19977,0.3469,8,hospital_042,0.8902,S_076,0.2184,False
11772,-37.717312,144.82449,22 Barwon Avenue,KEILOR,9100000,house,2015,3,2,1,SC_107,1.8714,20001,3.0176,36,hospital_005,4.884,S_222,2.1882,True
74225,-37.882735,145.029346,119 Bambra Road,CAULFIELD,28730000,house,2015,5,3,3,SC_023,1.3929,19943,1.2983,23,hospital_080,1.2206,S_166,0.2793,True
55516,-37.83525,145.077528,30A Allambee Avenue,CAMBERWELL,14820000,house,2014,3,2,2,SC_099,2.1002,19851,0.6378,30,hospital_168,2.3165,S_160,0.5746,False
40704,-37.69356918,145.06504819999995,48 Milton Parade,BUNDOORA,4752000,house,2009,4,2,2,SC_062,4.9993,19984,2.5441,34,hospital_041,0.2983,S_155,1.0637,False
65214,-37.796406,145.31851899999995,2/5 ALASTAIR COURT,KILSYTH,2136000,house,2013,3,2,2,SC_022,3.1316,19877,1.4048,0,hospital_113,4.9869,S_224,0.9611,False
6956,-37.787742,144.82595600000005,7 Rosdale Place,SUNSHINE,5880000,house,2012,4,2,2,SC_102,0.9012,20021,0.6153,25,hospital_174,1.2592,S_080,0.9258,False
1055,-37.793688,144.88542900000004,45 Eleanor Street,FOOTSCRAY,5830000,house,2010,2,1,2,SC_043,2.104,20023,0.904,19,hospital_056,0.0916,S_201,1.3572,False
65627,-37.780459,145.321038,10 STRUAN AVE,MOOROOLBARK,9780000,house,2015,5,2,3,SC_084,2.5608,19877,0.8974,0,hospital_113,3.6126,S_168,2.3927,True
95728,-37.91340200000001,145.045942,4 Malcolm Street,MCKINNON,14800000,house,2016,4,2,2,SC_046,2.9808,19940,0.7544,36,hospital_159,2.0865,S_107,0.761,True
64454,-37.807234,145.270533,4/66 Bayswater Road,CROYDON,6160000,house,2015,3,2,2,SC_022,1.4285,19878,1.5837,0,hospital_164,1.3153,S_055,1.3509,False
67655,-37.754095,145.366546,7 Goodall Drive,LILYDALE,6075000,house,2014,3,1,2,SC_084,4.6523,19876,1.6653,0,hospital_151,0.8933,S_233,1.5197,False
73696,-37.862305,145.253963,42 Allanfield Crescent,BORONIA,10990000,house,2016,4,2,2,SC_032,5.9425,19870,2.6072,0,hospital_002,1.4632,S_139,2.4338,True
92393,-37.975456,145.07346,65 Riviera Street,MENTONE,12832000,house,2013,4,2,2,SC_003,1.4515,19865,1.0192,39,hospital_133,0.886,S_003,1.0134,False
567,-37.795811,144.899945,20  Nicholson Street,FOOTSCRAY,18850000,house,2016,4,1,2,SC_011,2.0652,20025,0.6529,14,hospital_003,1.0316,S_201,0.5752,True
66780,-37.7617149,145.3183025,94 Partridge Way,MOOROOLBARK,5995000,house,2011,4,2,2,SC_084,0.5525,19877,2.6161,0,hospital_113,3.2111,S_168,0.2975,False
990,-37.80456924,144.8916321,4 Young Street,SEDDON,3600000,house,2009,2,1,0,SC_043,2.9147,20024,0.2302,17,hospital_056,1.36,S_201,0.7041,False
14420,-37.753581,144.92680900000005,4 Raleigh Street,ESSENDON,3700000,house,2016,5,3,3,SC_082,2.8727,20036,0.8775,23,hospital_128,1.7268,S_025,1.6483,False
22611,-37.74208,144.977334,32/14 Bell Street,COBURG,5334000,house,2015,2,1,1,SC_103,2.1846,19965,1.2325,0,hospital_144,1.6754,S_173,0.9825,False
40754,-37.69683456,145.0689392,5 Ellery St,BUNDOORA,4060000,house,2007,4,3,1,SC_062,5.2342,19984,2.0453,34,hospital_041,0.7972,S_155,1.2574,False
27477,-37.578599,144.935848,62 Hamilton Hume Parade,CRAIGIEBURN,2608000,house,2014,3,2,2,SC_005,1.4304,40221,2.6673,45,hospital_104,8.1403,S_178,1.7221,False
96491,-38.005985,145.27766,13 Marson Crescent,HALLAM,4200000,house,2010,4,2,1,SC_077,2.5763,19885,1.48,59,hospital_069,3.6138,S_212,1.0617,False
18335,-37.68423843,144.92085269999995,18 Martell Street,BROADMEADOWS,5362000,house,2009,3,1,0,SC_059,3.1932,20030,0.1716,36,hospital_104,3.7339,S_153,0.688,True
8446,-37.751597,144.74715600000005,35 Roycroft Avenue,BURNSIDE,6432000,house,2010,3,2,2,SC_048,2.1331,20002,4.7157,33,hospital_057,6.0091,S_156,0.6223,False
16558,-37.70617100000001,144.938757,148 West Street,HADFIELD,6010000,house,2016,4,2,1,SC_030,3.0872,19961,1.8743,0,hospital_184,4.997,S_004,0.0949,False
14738,-37.753824,144.899236,7 Hedderwick Street,ESSENDON,18900000,house,2011,4,1,2,SC_082,2.2778,20037,1.5125,20,hospital_184,1.3819,S_197,1.4308,True
79586,-37.994917,145.170153,12 Domain Drive,KEYSBOROUGH,5880000,house,2010,2,2,2,SC_057,0.3705,19889,2.6422,51,hospital_096,0.1617,S_079,0.2882,False
80428,-37.985802,145.169632,63 Kingsclere Avenue,KEYSBOROUGH,3718000,house,2012,3,1,0,SC_057,0.8363,19889,2.1027,51,hospital_096,0.8797,S_079,0.8464,False
87481,-37.93173218,145.00010680000003,2 McCarthy Street,HAMPTON,15700000,house,2008,4,2,2,SC_046,3.4666,19949,0.7054,27,hospital_036,1.2322,S_088,0.6306,True
23370,-37.65203476,144.903595,11 Muirhead Court,GREENVALE,6150000,house,2009,4,2,2,SC_072,1.6472,44817,2.2169,39,hospital_104,1.4901,S_211,2.3448,False
33122,-37.751435,145.01895,7 Hay Street,PRESTON,8822000,house,2013,4,2,2,SC_047,1.7489,20013,1.7788,0,hospital_035,1.6084,S_105,1.3489,True
76406,-37.89105,145.08893799999996,799 Warrigal Road,OAKLEIGH,11730000,house,2016,2,1,2,SC_087,0.7088,19917,1.0392,34,hospital_166,1.7535,S_026,0.5905,False
35748,-37.723405,145.026356,9 Loddon Avenue,RESERVOIR,4707000,house,2012,3,1,1,SC_047,1.7216,20010,1.8528,0,hospital_025,1.6451,S_225,0.2679,False
23259,-37.726315,144.967102,9 Spry Street,COBURG NORTH,8364000,house,2014,4,2,2,SC_030,1.6413,19963,0.7865,0,hospital_139,2.8945,S_030,1.4948,False
43294,-37.712805,145.06825700000005,8 Cade Grove,MACLEOD,19200000,house,2016,4,3,2,SC_047,4.4012,19984,1.3835,34,hospital_037,1.5634,S_155,1.964,True
69497,-37.867964,145.078094,12 Meaden Street,ASHBURTON,21300000,house,2016,3,1,2,SC_042,1.5743,19847,0.1429,37,hospital_098,0.75,S_112,1.387,True
27607,-37.604436,144.927921,7 Medstead Court,CRAIGIEBURN,5775000,house,2010,3,2,2,SC_110,1.2621,40221,1.389,45,hospital_104,5.192,S_005,1.1931,True
85836,-37.896371,145.010748,8 Elster Avenue,ELSTERNWICK,14200000,house,2010,4,2,2,SC_023,3.6061,19953,0.5791,19,hospital_013,0.216,S_193,1.1235,False
71721,-37.84793472,145.2424927,61 Shetland Drive,WANTIRNA,5865000,house,2006,4,2,1,SC_032,4.0968,19871,2.1907,0,hospital_179,1.326,S_139,2.2147,False
64280,-37.80129,145.290001,325 Dorset Road,CROYDON,3685000,house,2012,3,1,1,SC_022,0.6565,19878,1.0529,0,hospital_164,3.1109,S_055,0.6268,False
1473,-37.80194092,144.89241030000005,80 Victoria Street,FOOTSCRAY,4092000,house,2006,2,1,0,SC_043,2.8702,20024,0.1037,17,hospital_003,1.1189,S_201,0.5101,False
34073,-37.728611,145.025469,185 Albert Street,RESERVOIR,4016000,house,2010,3,2,2,SC_047,1.1859,20011,1.9984,0,hospital_025,2.0272,S_225,0.5022,False
83263,-37.888261,145.24432,63 Allister Avenue,KNOXFIELD,6890000,house,2015,3,2,2,SC_073,5.5049,19868,4.5339,0,hospital_002,4.2098,S_027,1.576,True
3400,-37.821035,144.880561,34 Bena Street,YARRAVILLE,5291000,house,2008,3,1,0,SC_033,3.0378,19996,1.0062,15,hospital_056,3.1454,S_201,2.7304,False
55408,-37.847127,145.085511,27 Merton Street,CAMBERWELL,13050000,house,2009,4,2,2,SC_042,3.4044,19849,0.6611,34,hospital_089,1.3752,S_160,1.8573,False
42990,-37.7242012,145.1026001,23 Bimbadeen Crescent,YALLAMBIE,6460000,house,2009,4,1,2,SC_017,4.6197,19986,1.9382,40,hospital_075,2.1424,S_020,2.1829,True
80518,-37.982877,145.165619,8 Kirribilli Avenue,KEYSBOROUGH,6720000,house,2016,4,2,2,SC_057,1.2884,19890,2.0048,49,hospital_096,1.287,S_079,1.2837,True
11984,-37.709858,144.780417,1 Felicia Way,SYDENHAM,8245000,house,2014,4,2,2,SC_107,3.0683,20000,1.1162,39,hospital_057,6.3852,S_094,0.9177,True
43426,-37.705476,145.0767,1/73 Ladd Street,WATSONIA,6225000,house,2009,2,1,1,SC_047,5.4984,19984,0.8733,34,hospital_037,1.7592,S_020,2.0596,False
62518,-37.834753000000006,145.243813,12 Barnic Road,HEATHMONT,9730000,house,2013,4,2,1,SC_032,2.7814,19871,0.7188,0,hospital_179,2.1734,S_139,2.2254,True
73904,-37.867493,145.271784,62 Rankin Road,BORONIA,2160000,house,2010,2,1,1,SC_049,4.3857,19869,1.3567,0,hospital_049,1.104,S_024,1.2975,False
7088,-37.792616,144.83988100000005,9 Cornwall Road,SUNSHINE,10218000,house,2016,2,1,1,SC_102,1.2726,20021,0.7653,25,hospital_174,1.783,S_080,1.3605,True
24959,-37.603862,144.912991,10 Ballybunion Avenue,CRAIGIEBURN,5168000,house,2015,3,1,1,SC_016,1.2253,40221,2.6845,45,hospital_104,5.2545,S_178,2.1537,True
55357,-37.836789,145.086734,24 Wingan Avenue,CAMBERWELL,23120000,house,2014,3,2,2,SC_099,2.8784,19850,1.2675,32,hospital_089,2.3879,S_160,1.3975,True
40111,-37.680248,145.05143,23 Gazania Terrace,BUNDOORA,6960000,house,2016,5,2,2,SC_062,4.3736,20007,3.273,0,hospital_041,1.6091,S_155,2.0761,False
6798,-37.790766,144.835468,5 Station Place,SUNSHINE,3600000,house,2012,3,2,1,SC_102,0.954,20021,0.3369,25,hospital_174,1.4783,S_080,1.0379,False
38428,-37.784767,145.0174145,7/B Park Crescent,FAIRFIELD,14220000,house,2014,3,2,2,SC_001,2.8494,19930,0.6245,18,hospital_029,0.7726,S_039,2.6215,True
71089,-37.8585046,145.220929,12 Quixley Grove,WANTIRNA,6080000,house,2011,4,2,2,SC_032,5.1399,19871,3.9499,0,hospital_008,1.1307,S_226,0.9301,False
62379,-37.791085,145.248783,9 Holyrood Crescent,RINGWOOD,4700000,house,2015,3,2,2,SC_032,2.9836,19879,2.3279,0,hospital_164,1.9504,S_157,0.8782,False
91108,-37.973725,145.040234,1 Comas Road,BEAUMARIS,15340000,house,2016,3,2,2,SC_079,2.7385,19866,1.4833,37,hospital_055,1.2492,S_023,2.0957,True
27718,-37.592072,144.919368,79 Dorchester Street,CRAIGIEBURN,2840000,house,2016,3,1,2,SC_016,0.4964,40221,2.3748,45,hospital_104,6.5266,S_178,1.3083,False
15661,-37.738001,144.882749,29 Cuthbert Street,NIDDRIE,7711000,house,2010,3,1,2,SC_082,2.0584,20036,3.5145,23,hospital_184,2.0227,S_198,1.6479,False
59528,-37.825725,145.188311,19 Owen Street,MITCHAM,17850000,house,2016,3,1,1,SC_088,1.0476,19900,0.9172,0,hospital_010,1.7745,S_202,1.0822,True
96618,-37.997937,145.27161999999996,2/5 Kylie Court,HALLAM,3750000,house,2016,2,1,1,SC_077,2.1986,19885,2.2104,59,hospital_069,4.635,S_212,0.92,False
42376,-37.747538,145.059027,53 Mortimer Street,HEIDELBERG,8360000,house,2011,2,2,2,SC_017,1.2398,19936,0.8131,28,hospital_066,0.8923,S_100,1.5359,True
17481,-37.709783,144.949935,59 East Street,HADFIELD,7602000,house,2011,3,1,3,SC_030,2.5184,19962,1.0785,0,hospital_139,4.3255,S_004,1.0327,True
90498,-37.970612,145.04706399999995,3 Victor Avenue,CHELTENHAM,10500000,house,2015,4,2,0,SC_079,2.4481,19866,0.7918,37,hospital_055,1.1309,S_023,1.4599,True
91047,-37.956219,145.057772,88 Chesterville Road,CHELTENHAM,10960000,house,2016,5,3,3,SC_079,1.6646,19866,1.1949,37,hospital_082,0.4804,S_023,0.3995,True
75985,-37.89885200000001,145.09391000000005,24/79 Atherton Road,OAKLEIGH,6560000,house,2014,2,1,1,SC_087,1.5875,19917,0.5204,34,hospital_166,1.0607,S_026,1.5494,False
31103,-37.76064682,145.0247192,304 Gooch Street,THORNBURY,4400000,house,2009,3,1,2,SC_001,1.7063,19932,2.0013,21,hospital_039,0.6133,S_219,1.7189,False
15169,-37.741159,144.908669,262 Woodland Street,STRATHMORE,13940000,house,2010,4,2,3,SC_082,0.8438,20036,1.2729,23,hospital_184,0.341,S_197,0.4066,True
70055,-37.874931,145.07267,4 Ryburne Avenue,ASHBURTON,20280000,house,2015,3,1,2,SC_041,1.6463,19838,0.3639,23,hospital_108,1.3595,S_048,1.6717,True
38169,-37.768442,145.019081,263 Gillies Street,FAIRFIELD,4365000,house,2011,3,2,2,SC_001,1.9992,19930,1.2096,18,hospital_035,1.1647,S_219,1.9922,False
58899,-37.813439,145.175953,326 Springfield Road,NUNAWADING,8085000,house,2014,4,2,2,SC_088,0.7286,19899,0.8029,0,hospital_070,1.6208,S_202,1.1658,False
59655,-37.81125,145.205631,22 Sharrow Road,MITCHAM,8560000,house,2013,4,2,2,SC_032,2.0458,19901,1.0585,0,hospital_010,1.018,S_040,2.0349,False
69420,-37.868899,145.07898899999995,10 Laurel Street,ASHBURTON,13970000,house,2015,3,1,2,SC_042,1.4467,19847,0.0871,37,hospital_098,0.76,S_112,1.3265,False
89009,-37.954244,145.033265,7 Tibrockney Street,HIGHETT,6450000,house,2012,3,2,3,SC_079,0.8907,19872,0.9952,41,hospital_058,1.5028,S_069,0.8905,False
84124,-37.856013,145.004308,50 Packington Street,PRAHRAN,4620000,house,2016,3,1,3,SC_066,1.3533,19946,1.0258,22,hospital_132,0.4541,S_115,0.891,False
51714,-37.783133,145.13996699999996,9 Chapel Court,DONCASTER,11330000,house,2011,4,3,2,SC_091,1.306,19897,4.1913,0,hospital_194,2.4357,S_188,1.4692,True
24954,-37.573672,144.926074,10 Ashville Place,CRAIGIEBURN,3450000,house,2016,2,2,1,SC_005,0.5061,40221,3.4828,45,hospital_104,8.5887,S_178,2.3684,False
60804,-37.844044,145.195851,5 Rhodes Court,VERMONT,6560000,house,2013,3,2,2,SC_088,3.1015,19900,2.918,0,hospital_008,2.7867,S_202,2.8288,False
84395,-37.85542297,144.98739619999995,80 Peel Street,WINDSOR,7750000,house,2009,2,1,0,SC_066,1.0551,19957,0.4137,11,hospital_103,0.6643,S_053,1.4642,False
23489,-37.658374,144.889674,2 Swinton Way,GREENVALE,4690000,house,2012,5,2,2,SC_075,2.2201,44817,3.2194,39,hospital_104,2.841,S_211,2.1709,False
51774,-37.80261993,145.1889954,12 Langford Crescent,DONVALE,7275000,house,2008,4,2,2,SC_088,2.0357,19900,1.7331,0,hospital_070,0.9081,S_202,2.6228,False
56329,-37.844561,145.120367,2 Kilsyth Avenue,BURWOOD,12740000,house,2013,5,2,2,SC_037,2.8461,20042,2.8222,0,hospital_047,1.1833,S_097,1.5348,True
32598,-37.734732,145.02965600000005,31 Oak Street,PRESTON,4050000,house,2011,3,1,0,SC_047,0.429,20011,2.4694,0,hospital_090,1.9616,S_225,1.0964,False
10052,-37.79921341,144.9264984,131 Ormond Street,KENSINGTON,4185000,house,2008,2,1,2,SC_011,2.0835,20026,0.0972,10,hospital_114,0.6136,S_086,1.3452,False
87279,-37.931999,145.016261,10 Bateman Street,HAMPTON,9100000,house,2011,2,1,1,SC_046,2.1109,19949,1.4591,27,hospital_036,1.6004,S_088,1.3549,False
19651,-37.671239,144.897752,204 Erinbank Crescent,ATTWOOD,10092500,house,2016,4,3,2,SC_059,2.2004,20030,2.332,36,hospital_104,3.0361,S_153,2.2394,True
70215,-37.870036,145.08961499999995,6 Halifax Court,ASHBURTON,15000000,house,2015,3,1,0,SC_042,0.8301,19839,0.4947,26,hospital_098,0.7914,S_112,0.5411,True
64583,-37.81044388,145.2870026,5 Kaneira Avenue,CROYDON,4236000,house,2009,2,1,1,SC_022,1.3107,19878,1.763,0,hospital_164,2.7786,S_055,1.1967,False
93523,-37.987491,145.070635,58-60 Warrigal Road,PARKDALE,16350000,house,2013,4,2,2,SC_003,2.4355,19865,0.7889,39,hospital_001,0.3985,S_003,0.6876,True
59886,-37.808418,145.19714399999995,35 Quarry Road,MITCHAM,11070000,house,2015,3,1,0,SC_088,1.9649,19900,1.1605,0,hospital_070,0.333,S_202,2.5218,True
29152,-37.801082,144.99653600000005,93 Stafford Street,ABBOTSFORD,14110000,house,2013,3,1,2,SC_068,2.6314,19975,0.282,11,hospital_134,1.2819,S_076,0.9522,True
36832,-37.62630844,145.02879330000005,136 Epping Road,EPPING,6681000,house,2008,4,2,2,SC_062,5.7414,20005,2.9054,0,hospital_053,3.0146,S_196,2.1068,True
70575,-37.8884995,145.0981419,18 Swanson Crescent,CHADSTONE,11760000,house,2012,4,2,2,SC_042,1.3721,19917,1.5789,34,hospital_166,1.3813,S_026,1.2145,True
48820,-37.793303,145.021746,9 Stevens Close,KEW,10230000,house,2012,4,2,2,SC_083,3.2598,19930,1.6297,18,hospital_029,0.4678,S_039,1.6043,False
57828,-37.83036423,145.13760380000005,21 Canterbury Road,BLACKBURN,7990000,house,2008,4,1,2,SC_037,1.8355,19897,1.1011,0,hospital_047,1.4417,S_018,0.8623,False
19762,-37.6741333,144.89535519999995,5 Lavery Place,ATTWOOD,4880000,house,2008,3,1,3,SC_059,1.8156,20030,2.3564,36,hospital_104,3.4181,S_153,2.3582,False
58310,-37.813281,145.141548,7 Wright Street,BLACKBURN,12400000,house,2012,4,2,2,SC_037,1.7999,19897,0.8381,0,hospital_154,1.9171,S_147,1.8707,True
82788,-37.902707,145.270578,45 Langhorne Crescent,ROWVILLE,13360000,house,2014,4,3,2,SC_049,3.4342,19868,3.1886,0,hospital_150,3.7762,S_199,2.3048,True
72924,-37.86050415,145.2554932,13 Thanos Court,BORONIA,3320000,house,2008,5,3,2,SC_032,5.8099,19870,2.367,0,hospital_002,1.2482,S_139,2.1939,False
30153,-37.766044,144.998602,5 Gladstone Avenue,NORTHCOTE,6066000,house,2009,2,1,1,SC_103,2.9602,20015,0.2555,0,hospital_035,0.8851,S_105,1.7245,False
43043,-37.72006,145.101361,27 Ovata Close,YALLAMBIE,2057000,house,2016,3,2,2,SC_017,4.9144,19984,1.8492,34,hospital_075,1.7087,S_020,1.7143,False
70302,-37.873741,145.073995,76 Nicholas Street,ASHBURTON,4598000,house,2016,3,1,2,SC_042,1.5899,19838,0.5381,23,hospital_108,1.3754,S_026,1.7484,False
35630,-37.72798538,145.0017395,8 Verdun Grove,RESERVOIR,2880000,house,2009,2,1,1,SC_103,1.2913,20011,0.1021,0,hospital_139,1.2041,S_085,1.0227,False
17652,-37.703624,144.931424,72 Melbourne Avenue,GLENROY,4260000,house,2012,2,1,1,SC_030,3.6023,20032,1.2551,32,hospital_184,4.8906,S_209,0.7053,False
7572,-37.746636,144.767252,6 Bloomingdale Ave,ALBANVALE,6300000,house,2011,4,2,2,SC_048,2.7297,20002,2.8937,33,hospital_057,4.4352,S_070,0.7205,True
49869,-37.76207352,145.08491519999995,12 Mangan Street,BULLEEN,8550000,house,2009,4,2,2,SC_009,0.7334,19935,2.2038,26,hospital_004,2.1342,S_154,0.7306,False
47732,-37.807316,145.03235800000004,10/56 Cotham Road,KEW,7200000,house,2016,4,3,2,SC_083,1.4914,19904,1.6156,21,hospital_086,1.345,S_039,0.2145,False
73534,-37.844422,145.290325,31 Landscape Drive,BORONIA,7365000,house,2014,3,1,1,SC_022,5.0868,19869,1.8592,0,hospital_049,2.1311,S_024,1.9864,True
43150,-37.72251511,145.07926940000004,40 Fairlie Avenue,MACLEOD,5950000,house,2008,2,1,2,SC_017,3.82,19983,0.9729,31,hospital_037,3.0139,S_020,2.6998,False
51076,-37.79280900000001,145.132224,23 Highview Drive,DONCASTER,11000000,house,2015,3,1,1,SC_091,0.8407,20042,3.0897,0,hospital_154,2.5766,S_188,0.9703,True
67561,-37.75177765,145.3698883,514 Maroondah Highway,LILYDALE,2907000,house,2008,3,2,2,SC_084,4.9754,19876,1.9959,0,hospital_151,1.1773,S_233,1.8825,False
59639,-37.824066,145.20564199999995,21 Somers Street,MITCHAM,15470000,house,2014,4,2,0,SC_088,2.352,19901,0.8521,0,hospital_010,1.8238,S_040,2.4389,True
77795,-37.92786407,145.1520996,25 Wilma Avenue,MULGRAVE,4810000,house,2009,3,1,2,SC_073,3.8237,19914,1.6602,42,hospital_076,2.8502,S_148,2.7023,False
45809,-37.713617,145.127093,13 Calrossie Avenue,MONTMORENCY,11600000,house,2010,3,2,2,SC_051,5.2953,19986,0.5255,40,hospital_075,2.0945,S_210,2.4563,True
6477,-37.782664,144.821954,23 Sydney Street (Albion),ALBION,6960000,house,2014,3,1,2,SC_102,1.0228,20004,0.608,28,hospital_174,1.0822,S_080,0.987,False
84364,-37.853146,144.999875,78 Lewisham Road,WINDSOR,11700000,house,2014,3,1,0,SC_066,0.8547,19957,0.7613,11,hospital_012,0.1944,S_115,0.7396,True
19186,-37.66881400000001,144.921563,8 Bogong Court,BROADMEADOWS,3350000,house,2010,3,2,0,SC_072,2.011,44817,0.9554,39,hospital_104,2.0193,S_153,1.0326,False
75786,-37.903489,145.108945,1590 Dandenong Road (in service lane),HUNTINGDALE,12077000,house,2016,3,1,2,SC_087,2.9306,19916,1.018,36,hospital_166,0.5384,S_169,2.6397,True
62472,-37.828742,145.257959,1/9 Harriet Street,HEATHMONT,7760000,house,2015,2,1,1,SC_032,3.1201,19871,1.1794,0,hospital_164,2.3449,S_139,1.7678,True
94696,-37.92064600000001,145.035279,12 Loranne Street,BENTLEIGH,17850000,house,2013,2,1,2,SC_046,2.1159,19939,0.389,38,hospital_110,1.3876,S_107,0.6119,True
37872,-37.643067,145.04977,95 Derby Drive,EPPING,4480000,house,2010,3,1,2,SC_062,3.292,45795,1.6658,0,hospital_053,3.0822,S_083,2.278,False
36450,-37.66453900000001,145.033225,4 Walden Place,LALOR,7667000,house,2016,3,1,1,SC_062,4.8243,20005,1.3801,0,hospital_053,2.0631,S_229,1.1971,True
56325,-37.845815,145.121573,2 Farleigh Avenue,BURWOOD,21840000,house,2016,3,1,3,SC_037,2.9809,20042,2.9603,0,hospital_047,1.1106,S_097,1.3674,True
34279,-37.70877457,145.00608830000004,21 Broadhurst Avenue,RESERVOIR,5340000,house,2008,3,1,2,SC_103,3.4489,20009,0.3173,0,hospital_139,1.2075,S_225,2.6835,False
78658,-37.954544,145.15075900000005,15/8 St James Avenue,SPRINGVALE,1824000,house,2013,1,1,1,SC_057,4.6892,19913,0.6083,44,hospital_124,3.0367,S_075,0.1399,False
90116,-37.968392,145.07788,172 Centre Dandenong Road,CHELTENHAM,9120000,house,2010,4,1,1,SC_003,1.0278,19865,1.8693,39,hospital_109,0.6997,S_003,1.7472,False
94086,-38.07754135,145.13035580000005,10 Dyson Road,CARRUM,6285000,house,2009,3,1,1,SC_070,4.7255,19858,0.7554,54,hospital_043,7.9465,S_077,2.8769,False
59248,-37.80926132,145.18502809999995,1/396A Springfield Road,MITCHAM,12460000,house,2009,3,2,1,SC_088,1.2186,19900,1.1496,0,hospital_070,0.775,S_202,1.8053,True
84754,-37.882785,144.993559,20 Heaton Avenue,ELWOOD,27430000,house,2014,4,2,2,SC_015,1.933,19954,0.681,17,hospital_116,1.4201,S_133,1.0903,True
94838,-37.904826,145.052602,15 Garfield Avenue,ORMOND,4170000,house,2013,3,2,2,SC_041,2.2971,19941,1.1549,35,hospital_159,2.3049,S_107,1.8787,False
79316,-37.948484,145.15448700000005,7 Kelvin Grove,SPRINGVALE,8334000,house,2014,3,1,2,SC_057,5.1951,19913,0.1458,44,hospital_124,3.2836,S_075,0.6109,True
41324,-37.70492700000001,145.059994,97 Greenwood Drive,BUNDOORA,6504000,house,2014,3,1,1,SC_047,4.5646,19984,2.2008,34,hospital_037,0.4253,S_155,0.8276,False
62624,-37.836558,145.238148,18 Sunset Drive,HEATHMONT,4455000,house,2011,3,1,0,SC_032,2.774,19871,1.076,0,hospital_179,1.7114,S_139,2.6256,False
4089,-37.845188,144.870344,123 Woods Street,NEWPORT,11815000,house,2010,3,2,0,SC_033,2.9236,19994,1.1973,20,hospital_141,2.6732,S_056,2.3673,True
47713,-37.806613,145.052967,10 Downton Grove,KEW,7784000,house,2011,3,1,2,SC_099,2.0234,19903,1.8655,23,hospital_064,0.4709,S_137,1.8247,False
45732,-37.721486,145.11446,1/21 Alexander Street,MONTMORENCY,4350000,house,2015,3,1,1,SC_009,5.3017,19986,0.9278,40,hospital_075,1.9717,S_020,2.2585,False
67190,-37.744391,145.338636,2 Zulu Close,LILYDALE,8400000,house,2014,4,2,2,SC_084,2.6595,19876,1.4738,0,hospital_151,1.8266,S_233,1.8153,True
36153,-37.67567062,145.028595,122 Messmate Street,LALOR,3835000,house,2008,3,1,3,SC_062,5.6815,20007,1.3641,0,hospital_053,2.8863,S_228,1.0719,False
1917,-37.78505325,144.86938480000003,19 Janson Street,MAIDSTONE,4212000,house,2008,3,1,1,SC_043,1.182,20022,1.6789,21,hospital_056,1.7309,S_149,1.1823,False
50486,-37.758398,145.126234,137 Foote Street,TEMPLESTOWE,6050000,house,2013,3,2,2,SC_009,3.1263,19986,4.8159,40,hospital_193,1.9068,S_046,2.0026,False
37626,-37.63067,145.035015,6 Quartz Grove,EPPING,9452000,house,2015,4,3,3,SC_062,5.0273,20005,2.4557,0,hospital_053,2.8429,S_196,2.3513,True
9429,-37.864652,144.722274,25 Sunnyvale Rise,TRUGANINA,3400000,house,2015,4,2,2,SC_053,2.2912,46468,2.2868,32,hospital_073,4.0006,S_007,1.8354,False
32932,-37.73397064,145.0198669,52 Malpas Street,PRESTON,7590000,house,2008,4,2,2,SC_047,1.0519,20011,1.6276,0,hospital_139,2.6497,S_225,1.2752,False
47132,-37.720769,145.15823899999995,4 Arcola Court,ELTHAM,8190000,house,2012,3,2,2,SC_051,5.2448,19987,1.2195,44,hospital_075,4.9296,S_194,0.6425,True
55715,-37.840212,145.066576,468 Camberwell Road,CAMBERWELL,13580000,house,2010,3,1,2,SC_099,1.9194,19851,0.598,30,hospital_168,1.2069,S_160,0.6985,False
25922,-37.58908081,144.9312592,20 WOODLEA CRESCENT,CRAIGIEBURN,4575000,house,2008,3,2,2,SC_110,1.264,40221,1.7725,45,hospital_104,6.9252,S_178,0.5986,True
86769,-37.92418,145.002944,44 Roslyn Street,BRIGHTON,20800000,house,2013,4,2,2,SC_046,3.5452,19951,1.1638,22,hospital_156,1.7054,S_009,1.1744,True
28240,-37.799507,144.983258,322 Gore Street,FITZROY,18880000,house,2011,2,2,0,SC_008,1.8112,19975,0.9853,11,hospital_178,1.0086,S_060,0.2146,True
57116,-37.822948,145.076091,1A Hopetoun Avenue,CANTERBURY,32980000,house,2014,4,3,2,SC_099,1.5951,19893,0.4827,0,hospital_064,2.9135,S_160,1.4143,True
46362,-37.707574,145.161729,1/2 Frank Street,ELTHAM,5300000,house,2015,3,1,1,SC_051,3.7784,19987,1.3937,44,hospital_075,4.9272,S_194,0.8895,False
26956,-37.592148,144.932692,43 Southern Crescent,CRAIGIEBURN,2640000,house,2016,3,2,1,SC_110,0.9207,40221,1.4273,45,hospital_104,6.6068,S_178,0.2362,False
96050,-37.91532516,145.026535,6 Somers Street,BENTLEIGH,17100000,house,2009,4,2,2,SC_046,2.8839,19939,0.9479,38,hospital_126,1.7555,S_107,1.445,True
95799,-37.91477,145.046968,43 Wavell Street,BENTLEIGH,19920000,house,2016,4,3,1,SC_046,2.8551,19940,0.909,36,hospital_159,1.9379,S_107,0.6807,True
45707,-37.665641,145.11746399999996,9 Rotin Court,PLENTY,11770000,house,2011,4,2,2,SC_062,3.2171,19988,3.7154,48,hospital_075,4.513,S_051,2.6896,False
56801,-37.841561,145.101316,6 Acacia Place,BURWOOD,9440000,house,2015,4,2,2,SC_037,3.1188,19895,1.9512,0,hospital_089,1.8746,S_160,2.7634,False
76430,-37.896187,145.085504,8A Crewe Road,HUGHESDALE,3040000,house,2013,2,2,2,SC_087,0.9306,19917,0.527,34,hospital_166,1.8303,S_167,0.9305,False
26404,-37.608016,144.913122,3 St Ives Place,CRAIGIEBURN,5925000,house,2010,4,2,2,SC_016,1.6866,40221,2.7511,45,hospital_104,4.7945,S_178,2.4135,True
1947,-37.824543,144.8397369,2 Lynch Road,BROOKLYN,4500000,house,2009,3,1,1,SC_033,0.6613,20022,3.4774,21,hospital_174,5.2538,S_056,1.3434,False
95330,-37.901367,145.03745800000004,26 Malane Street,ORMOND,15400000,house,2013,4,2,2,SC_041,2.6248,19941,0.2793,35,hospital_126,1.5902,S_107,2.0626,True
82173,-37.982656,145.240832,4 Leigh Court,DOVETON,3104000,house,2015,3,2,1,SC_112,2.3138,19888,2.8479,54,hospital_119,1.9382,S_195,1.5924,False
5933,-37.800419,144.82196299999995,1 Boreham Street,SUNSHINE,8540000,house,2016,3,1,0,SC_102,2.258,20021,1.6345,25,hospital_174,2.6951,S_130,1.4337,True
43193,-37.729005,145.104183,5 Noojee Court,YALLAMBIE,6138000,house,2016,3,1,2,SC_009,4.2197,19986,2.1582,40,hospital_075,2.6618,S_020,2.7304,True
9453,-37.855805,144.727251,29 Holland Crescent,TRUGANINA,5250000,house,2015,4,2,2,SC_053,2.099,46468,2.3663,32,hospital_073,4.8219,S_007,1.8894,True
27869,-37.569645,144.921583,89 Charteris Drive,CRAIGIEBURN,5440000,house,2015,3,2,1,SC_005,0.5575,40221,4.0623,45,hospital_104,9.0231,S_178,2.9241,True
25833,-37.601917,144.92611100000005,2 Ottery Court,CRAIGIEBURN,4680000,house,2010,4,2,2,SC_110,1.2813,40221,1.5178,45,hospital_104,5.4532,S_178,1.1229,True
93863,-38.059057,145.127921,22 Troy Street,BONBEACH,3640000,house,2012,3,1,1,SC_070,5.801,19859,0.842,51,hospital_096,8.2048,S_077,1.1778,False
8178,-37.748319,144.747277,17 Strickland Crescent,BURNSIDE,5004000,house,2015,5,2,2,SC_048,1.7832,20001,4.6065,36,hospital_057,6.0696,S_156,0.7885,False
85423,-37.89170074,145.0059052,24 Denver Crescent,ELSTERNWICK,19880000,house,2009,5,3,3,SC_015,3.3855,19953,0.5765,19,hospital_116,0.751,S_193,0.5233,True
57018,-37.820429,145.062231,12 Parlington Street,CANTERBURY,32320000,house,2011,5,3,0,SC_099,0.5708,19853,0.7506,25,hospital_064,1.7906,S_113,1.0194,True
6382,-37.780756,144.816646,2/15 Mclean Street (Albion),ALBION,21840000,house,2014,3,1,1,SC_102,1.4994,20004,0.7886,28,hospital_174,1.438,S_080,1.4506,True
82471,-37.995038,145.250972,91 Doveton Avenue,EUMEMMERRING,4200000,house,2010,4,2,2,SC_077,1.1537,19885,3.0178,59,hospital_119,3.0169,S_212,1.6811,False
76346,-37.89194000000001,145.082178,606 Neerim Road,HUGHESDALE,11850000,house,2010,3,2,1,SC_087,0.3954,19918,0.5162,32,hospital_166,2.2435,S_167,0.3952,True
1644,-37.810564,144.88026100000005,102 Coronation Street,KINGSVILLE,9225000,house,2014,2,1,1,SC_043,2.5024,19996,1.0344,15,hospital_056,2.0095,S_201,1.9055,True
88951,-37.955654,145.053559,6 Enright Street,HIGHETT,7205000,house,2012,3,1,2,SC_079,1.3146,19866,1.2272,37,hospital_082,0.6066,S_023,0.4679,False
35502,-37.7129631,145.01667790000005,70 Strathmerton Street,RESERVOIR,4500000,house,2007,2,1,1,SC_047,3.0911,20009,0.846,0,hospital_139,1.7178,S_225,1.7014,False
86671,-37.909808,144.990733,38 Grosvenor Street,BRIGHTON,40800000,house,2011,4,2,2,SC_015,4.6612,19951,0.7684,22,hospital_198,0.1321,S_150,0.4773,True
58189,-37.827722,145.144919,5 Sheehans Road,BLACKBURN,12600000,house,2015,4,3,2,SC_037,2.2011,19897,0.8571,0,hospital_060,1.1415,S_018,0.4625,True
39469,-37.693469,145.057039,11 Joshua Court,BUNDOORA,3600000,house,2016,3,1,0,SC_062,5.285,19984,3.0566,34,hospital_041,0.5652,S_155,0.6131,False
68004,-37.843642,145.011934,26 Montalto Avenue,TOORAK,4088000,house,2016,4,2,2,SC_038,0.4706,19946,0.8126,22,hospital_132,1.1968,S_102,0.4898,False
19142,-37.687665,144.921604,7 Dacelo Avenue,BROADMEADOWS,5185000,house,2013,3,1,1,SC_059,3.2291,20030,0.5429,36,hospital_104,4.1165,S_153,1.0659,True
72031,-37.85274,145.26891899999995,127 Scoresby Road (Cnr Devenish Road),BAYSWATER,8355000,house,2016,3,1,2,SC_032,5.6785,19870,1.2275,0,hospital_002,0.3105,S_139,1.1021,True
36739,-37.642684,145.029476,11 Hammond Drive,EPPING,7020000,house,2016,3,1,2,SC_062,5.0386,20005,1.0816,0,hospital_053,1.5131,S_196,1.7942,True
73752,-37.865115,145.26877,49 Valerie Street,BORONIA,6300000,house,2010,3,1,1,SC_049,4.76,19869,1.4672,0,hospital_002,1.0751,S_024,1.4412,True
63078,-37.825009,145.243248,70 Campbell Street,HEATHMONT,5112000,house,2016,3,1,1,SC_032,1.8633,19871,0.3863,0,hospital_105,1.5442,S_190,1.8794,False
31152,-37.761129,145.025227,333 Raleigh Street,THORNBURY,9600000,house,2012,3,1,1,SC_001,1.6417,19932,1.9315,21,hospital_039,0.5485,S_219,1.6537,True
78546,-37.958406,145.14873799999995,11 Moncur Avenue,SPRINGVALE,2925000,house,2011,3,1,2,SC_057,4.3878,19913,1.0734,44,hospital_124,2.9417,S_075,0.6034,False
73123,-37.86590958,145.2979126,191 Forest Road,BORONIA,8046000,house,2008,4,2,2,SC_049,3.2996,19869,1.3351,0,hospital_049,1.3861,S_146,1.1338,True
88979,-37.952076,145.055123,64 Turner Road,HIGHETT,7150000,house,2010,2,1,2,SC_079,1.2761,19872,1.2321,41,hospital_082,0.9455,S_023,0.8243,False
73344,-37.861175,145.27083000000005,244B Boronia Road,BORONIA,6864000,house,2010,3,3,1,SC_049,4.9486,19869,1.194,0,hospital_002,0.6765,S_024,1.2099,True
11483,-37.7834816,144.8860779,49 Mitchell Street,MARIBYRNONG,5350000,house,2008,2,1,2,SC_085,1.1539,20027,1.9372,0,hospital_003,1.0101,S_049,1.1778,False
32202,-37.744739,144.991302,2 Orient Grove,PRESTON,17600000,house,2016,4,2,2,SC_103,1.099,20013,0.7846,0,hospital_144,2.1576,S_105,1.294,True
94975,-37.930236,145.034232,18 Howell Street,BENTLEIGH,11000000,house,2014,3,1,2,SC_046,1.0926,19937,0.5084,39,hospital_110,0.386,S_107,1.3776,True
5928,-37.779321,144.838299,1 & 2/10 Farnsworth Street,SUNSHINE,12100000,house,2015,3,2,1,SC_102,0.5339,20021,1.1313,25,hospital_174,0.5396,S_080,0.5252,True
10110,-37.7942,144.926285,15 The Ridgeway,KENSINGTON,13552000,house,2016,3,1,0,SC_011,1.5897,20041,0.3758,13,hospital_114,0.3596,S_086,0.7942,True
49898,-37.774334,145.08726299999995,13 Southam Court,BULLEEN,12530000,house,2011,5,3,2,SC_009,1.0497,19935,3.0269,26,hospital_194,2.4619,S_154,0.9376,True
21028,-37.764662,144.95844499999995,31 Percy Street,BRUNSWICK,9360000,house,2011,2,1,1,SC_030,3.6646,19968,0.355,0,hospital_011,1.1211,S_074,0.5885,False
56842,-37.845271,145.109429,69 Elgar Road,BURWOOD,8400000,house,2011,3,1,1,SC_037,3.135,19895,2.531,0,hospital_089,1.9059,S_097,2.3479,False
27516,-37.604235,144.938658,68 Hothlyn Drive,CRAIGIEBURN,4508000,house,2014,4,2,2,SC_110,0.6832,40221,0.4914,45,hospital_104,5.4163,S_005,0.7311,True
22424,-37.746719,144.94808700000004,264 Reynard St,COBURG,8960000,house,2015,2,1,0,SC_030,1.6034,19965,1.4279,0,hospital_084,1.2237,S_172,1.6107,True
57380,-37.822283,145.075633,6 Victoria Avenue,CANTERBURY,4270000,house,2010,4,1,2,SC_099,1.5641,19893,0.5494,0,hospital_064,2.8397,S_160,1.4731,False
12800,-37.70093536,144.7705994,26/12 Pecks Road,SYDENHAM,2940000,house,2008,2,1,1,SC_107,4.372,20000,0.3161,39,hospital_057,7.6739,S_094,0.5194,False
68898,-37.856086,145.03798999999995,2 Frederick Street,MALVERN,5810000,house,2015,3,2,2,SC_023,2.2794,19911,0.8173,15,hospital_183,0.8514,S_235,0.9187,False
58186,-37.814715,145.140595,5 Patricia Road,BLACKBURN,11800000,house,2011,4,3,3,SC_037,1.6689,19897,0.6752,0,hospital_154,1.8356,S_147,1.75,False
12976,-37.72659,144.775812,312 Taylors Road,DELAHEY,5330000,house,2015,3,2,2,SC_107,2.7819,20001,1.6064,36,hospital_057,5.0832,S_222,2.4805,True
5705,-37.784601,144.859879,3/5 Daisy Court,BRAYBROOK,3520000,house,2013,3,2,1,SC_043,1.0182,20022,1.6529,21,hospital_056,2.5023,S_149,1.0186,False
25595,-37.587719,144.935471,16 Stoneleigh Place,CRAIGIEBURN,4880000,house,2010,3,1,1,SC_110,1.2258,40221,1.7153,45,hospital_104,7.1351,S_178,0.7111,True
22754,-37.744021,144.95825,4 Wellington Street,COBURG,10800000,house,2016,4,1,1,SC_030,1.4776,19965,0.485,0,hospital_084,1.1216,S_172,0.6683,True
19754,-37.679917,144.89221899999995,4-6 Wills Street,WESTMEADOWS,3630000,house,2014,3,1,0,SC_059,1.1237,20030,2.4385,36,hospital_104,4.0932,S_153,2.6009,False
56183,-37.846445,145.130754,13 Hansen Close,BURWOOD,8904000,house,2015,2,2,1,SC_037,3.1368,19897,2.9878,0,hospital_047,0.467,S_097,0.7736,False
21757,-37.73685,144.979616,10 Rasmussen Court,COBURG,4760000,house,2011,3,1,1,SC_103,1.9895,19964,1.5226,0,hospital_144,2.2909,S_030,0.8787,False
83055,-37.893388,145.246782,17 Rickards Avenue,KNOXFIELD,10430000,house,2015,3,2,2,SC_049,5.3995,19868,4.4526,0,hospital_002,4.621,S_027,1.4271,True
2573,-37.808075,144.883678,93 Queensville Street,KINGSVILLE,9330000,house,2010,2,1,1,SC_043,2.5254,20023,0.7124,19,hospital_056,1.6781,S_201,1.5015,True
42251,-37.738543,145.07890700000004,43 McCrae Road,ROSANNA,10230000,house,2014,2,1,3,SC_017,2.1236,19936,1.2231,28,hospital_066,2.394,S_100,2.4734,False
85865,-37.890566,145.009028,9 Gladstone Pde,ELSTERNWICK,26000000,house,2010,5,3,2,SC_023,3.3757,19953,0.8048,19,hospital_116,0.5618,S_193,0.4778,True
1511,-37.805261,144.887317,9 Edward Street,SEDDON,5733000,house,2011,4,2,2,SC_043,2.6117,20023,0.4224,19,hospital_056,1.3538,S_201,1.0663,False
70140,-37.860026,145.083075,5 Baker Parade,ASHBURTON,26720000,house,2015,4,2,2,SC_042,2.065,19848,0.2643,36,hospital_098,0.4673,S_112,1.1796,True
58442,-37.81399155,145.1693878,1/23 Sandy Street,NUNAWADING,5892000,house,2009,3,1,1,SC_002,0.6267,19899,0.8809,0,hospital_070,2.197,S_202,1.257,False
17786,-37.698872,144.92571999999996,86 Paget Avenue,GLENROY,5925000,house,2014,3,1,2,SC_059,3.7818,20031,0.9639,34,hospital_184,5.1648,S_209,0.8078,False
95505,-37.90750122,145.053299,300 Tucker Road,ORMOND,11440000,house,2008,3,2,0,SC_041,2.5758,19941,1.2934,35,hospital_159,2.0251,S_107,1.6613,True
21805,-37.7537638,144.9551634,11 Foch Avenue,COBURG,12000000,house,2013,4,2,1,SC_030,2.4185,19966,0.5916,0,hospital_084,0.2867,S_173,1.5792,True
12634,-37.704752,144.748739,20 Marner Avenue,HILLSIDE,3410000,house,2011,2,1,1,SC_048,3.2041,20000,2.2767,39,hospital_057,8.4862,S_163,1.2342,False
27750,-37.586752,144.916449,8 Corringa Way,CRAIGIEBURN,4455000,house,2010,4,2,2,SC_016,0.7196,40221,2.9034,45,hospital_104,7.1268,S_178,1.7457,True
78847,-37.94988251,145.1465149,23 ALBERT AVE,SPRINGVALE,7631000,house,2009,3,1,1,SC_057,5.3182,19913,0.6103,44,hospital_124,3.6555,S_075,0.6003,True
62284,-37.792467,145.244834,78 Wonga Road,RINGWOOD,6000000,house,2016,3,2,2,SC_032,2.6616,19879,2.2213,0,hospital_164,1.9477,S_157,1.0444,False
60111,-37.81516,145.198027,569 & 571 Whitehorse Road,MITCHAM,1984500,house,2010,3,1,2,SC_088,1.6875,19900,0.6197,0,hospital_010,0.6274,S_202,2.1508,False
44659,-37.698805,145.125686,22 Tallow Wood Drive,GREENSBOROUGH,7397000,house,2014,2,2,1,SC_051,4.1016,19985,1.6394,38,hospital_075,1.8822,S_051,1.7884,True
38867,-37.76195908,145.0407715,37 Valentine Street,IVANHOE,11872000,house,2009,3,1,0,SC_001,0.669,19933,0.8741,22,hospital_039,0.8933,S_219,0.7052,False
29489,-37.764644,144.989851,154 Gladstone Avenue,NORTHCOTE,8206000,house,2011,3,1,2,SC_103,2.9859,20015,0.6369,0,hospital_035,1.5953,S_105,1.9374,False
50302,-37.769857,145.085017,55 Rocklea Road,BULLEEN,7488000,house,2014,4,2,2,SC_009,0.7666,19935,2.571,26,hospital_004,2.5505,S_154,0.6533,False
4328,-37.835335,144.874197,2A Bruce Street,NEWPORT,7800000,house,2014,3,2,2,SC_033,2.598,19995,1.1567,18,hospital_141,3.3768,S_056,2.4398,False
45015,-37.718244,145.101097,4 Gladman Street,GREENSBOROUGH,4328000,house,2013,4,2,2,SC_017,5.0661,19985,1.7108,38,hospital_075,1.519,S_020,1.5111,False
92601,-37.991355,145.076701,11 Bethell Avenue,PARKDALE,13260000,house,2011,2,1,1,SC_003,2.499,19864,0.1947,41,hospital_001,0.3488,S_003,0.8111,True
68388,-37.85976028,145.0217285,22 St. James Road,ARMADALE,8272000,house,2009,3,2,2,SC_038,2.4424,19945,0.4245,23,hospital_092,0.731,S_013,0.6027,False
88856,-37.949098,145.022556,4 Regworth Court,HIGHETT,12320000,house,2014,3,1,0,SC_079,1.6253,19948,1.5855,29,hospital_058,1.4203,S_214,0.4117,True
65172,-37.813082,145.31382,17 Paramount Avenue,KILSYTH,5040000,house,2015,3,1,0,SC_022,3.1205,19877,3.1564,0,hospital_164,5.155,S_224,1.2557,False
56077,-37.85684967,145.13095090000004,1 Winton Street,BURWOOD,8414000,house,2009,3,1,2,SC_067,3.797,19875,2.0646,30,hospital_047,1.567,S_097,0.5455,False
37197,-37.643249,145.023557,29 Hall Street,EPPING,3440000,house,2015,3,1,1,SC_062,5.5398,20005,1.1703,0,hospital_053,1.1167,S_196,1.3302,False
56104,-37.84826279,145.1201477,1/95 Station Street,BURWOOD,4224000,house,2009,2,1,1,SC_037,3.2586,19840,2.9084,28,hospital_047,1.3282,S_097,1.3491,False
75936,-37.90355200000001,145.088414,21 Queens Avenue,OAKLEIGH,21250000,house,2014,3,2,2,SC_087,1.7881,19917,0.3541,34,hospital_166,1.6148,S_167,1.7879,True
16709,-37.699415,144.939499,191 West Street,GLENROY,3080000,house,2011,3,2,2,SC_030,3.7898,19961,1.7123,0,hospital_139,5.5389,S_004,0.8495,False
80295,-37.993508,145.176798,47 Cochrane Avenue,KEYSBOROUGH,9036000,house,2015,3,2,2,SC_057,0.3163,19889,2.1377,51,hospital_096,0.5082,S_079,0.3839,True
71337,-37.846227,145.24561599999996,25 Shetland Drive,WANTIRNA,7320000,house,2012,4,3,2,SC_032,4.0083,19871,1.9953,0,hospital_179,1.6297,S_139,1.9049,True
83044,-37.876168,145.248101,15 Peartree Place,KNOXFIELD,6050000,house,2013,3,2,2,SC_049,5.6599,19869,3.6369,0,hospital_002,2.9024,S_226,2.6459,True
16586,-37.707,144.907309,151 Loongana Avenue,GLENROY,3320000,house,2012,3,1,2,SC_010,1.9568,20032,0.915,32,hospital_184,3.9344,S_209,1.4742,False
87259,-37.932524,145.008933,1 Lagnicourt Street,HAMPTON,10100000,house,2012,3,1,1,SC_046,2.6963,19949,0.8931,27,hospital_036,1.194,S_088,0.7782,False
92787,-37.996273,145.07452,16 Ti-Tree Grove East,PARKDALE,6678000,house,2015,3,2,2,SC_003,3.076,19864,0.3893,41,hospital_001,0.6462,S_003,1.3772,False
31035,-37.760469,145.017971,263 Raleigh Street,THORNBURY,11880000,house,2010,4,1,1,SC_001,2.254,20014,1.8107,0,hospital_035,0.9316,S_105,1.6393,True
93542,-38.01814651,145.0983582,6 Gale Street,ASPENDALE,8064000,house,2009,4,2,3,SC_003,5.2967,19862,1.0634,46,hospital_001,3.7946,S_119,1.5198,True
89686,-37.952367,145.01955900000004,80 Sandringham Road,SANDRINGHAM,7800000,house,2010,4,2,2,SC_079,1.9224,19948,1.3358,29,hospital_058,1.0204,S_214,0.8061,False
30181,-37.768707,144.994648,50 Arthurton Road,NORTHCOTE,10670000,house,2010,4,1,2,SC_103,3.305,20016,0.1403,0,hospital_035,1.3286,S_105,2.1164,False
3103,-37.822034,144.893226,213/200 Stephen Street,YARRAVILLE,6800000,house,2015,3,2,2,SC_033,4.1184,19996,0.7467,15,hospital_056,3.2762,S_201,2.4067,False
63118,-37.830557,145.22821299999995,8 Yarang Court,HEATHMONT,9945000,house,2012,4,2,2,SC_032,1.9826,19871,1.4582,0,hospital_179,2.1033,S_040,2.0716,True
26351,-37.586617,144.91853,3 Jarrah Place,CRAIGIEBURN,2209500,house,2014,3,2,2,SC_016,0.8106,40221,2.7648,45,hospital_104,7.1351,S_178,1.5929,False
80477,-37.984614,145.169116,70 Kingsclere Avenue,KEYSBOROUGH,8640000,house,2016,3,2,2,SC_057,0.9758,19890,2.053,49,hospital_096,1.0173,S_079,0.9861,True
5349,-37.857525,144.822548,8 Frazer Avenue,ALTONA,6160000,house,2011,3,1,2,SC_033,4.0403,19925,1.1646,32,hospital_141,6.0894,S_128,1.3374,False
90545,-37.958492,145.043184,32 Jack Road,CHELTENHAM,6765000,house,2010,2,1,1,SC_079,1.0582,19872,1.1265,41,hospital_082,1.2152,S_069,1.0583,False
60928,-37.844454,145.18932,76 Terrara Road,VERMONT,12390000,house,2016,3,2,1,SC_088,2.9255,19899,2.9425,0,hospital_192,2.5479,S_066,2.387,True
12983,-37.692183,144.754415,32 Saronvale Crescent,HILLSIDE,5954000,house,2016,3,2,2,SC_048,4.6794,20000,2.0056,39,hospital_057,9.2631,S_163,0.2826,True
41880,-37.749902,145.058989,22 Mortimer Street,HEIDELBERG,1230000,house,2011,2,2,1,SC_017,1.0631,19935,0.8121,26,hospital_066,0.6444,S_100,1.324,False
56360,-37.846706,145.124708,20 Clanbrae Avenue,BURWOOD,6347000,house,2013,3,1,1,SC_037,3.0857,20042,3.073,0,hospital_047,0.8925,S_097,1.0867,False
8058,-37.747892,144.747712,12 Thorpe Place,BURNSIDE,3320000,house,2010,4,2,2,SC_048,1.7493,20001,4.5507,36,hospital_057,6.0432,S_156,0.7935,False
88010,-37.943213,145.013551,97 Linacre Road,HAMPTON,16060000,house,2013,4,2,1,SC_046,2.2154,19948,1.1182,29,hospital_036,0.8679,S_214,0.792,True
77344,-37.926273,145.15937,1 Wattle Grove,MULGRAVE,12495000,house,2015,4,2,2,SC_073,3.2267,19914,2.2586,42,hospital_065,3.4232,S_148,2.3975,True
71074,-37.851387,145.243809,114 Stud Road,WANTIRNA,5880000,house,2016,4,2,2,SC_032,4.4981,19870,2.3934,0,hospital_179,1.4472,S_139,2.2348,False
27967,-37.610386,144.91738999999995,9 Waterdale Rise,CRAIGIEBURN,5248000,house,2012,3,2,2,SC_016,1.9744,40221,2.4777,45,hospital_104,4.4952,S_005,2.3326,True
43239,-37.718337,145.06263,6 Linaker Drive,MACLEOD,6840000,house,2012,4,2,2,SC_047,3.627,19983,1.029,31,hospital_025,1.72,S_155,2.2905,False
17302,-37.697457,144.906467,46 Moonee Boulevard,GLENROY,6104000,house,2011,4,1,2,SC_059,2.1563,20031,0.8661,34,hospital_184,4.9933,S_209,1.8135,False
93268,-37.987814,145.07601599999995,35 Sixth Street,PARKDALE,15000000,house,2015,5,3,0,SC_003,2.1817,19864,0.5867,41,hospital_001,0.419,S_003,0.428,True
94729,-37.913926,145.03431,13 Fitzroy Street,MCKINNON,11206000,house,2009,2,1,1,SC_046,2.8688,19939,0.4553,38,hospital_126,1.9799,S_107,0.926,False
10086,-37.781097,144.922829,146 Ascot Vale Road,FLEMINGTON,6850000,house,2014,2,1,2,SC_011,0.6055,20039,0.6507,16,hospital_007,0.7332,S_086,0.8097,False
72076,-37.853752,145.25278899999995,16 Pindari Drive,BAYSWATER,6970000,house,2012,3,1,2,SC_032,5.0271,19870,1.9002,0,hospital_002,1.3665,S_139,1.7254,True
93049,-38.002971,145.101689,25 Arwon Street,MORDIALLOC,6640000,house,2011,4,2,2,SC_003,3.7134,19863,1.2946,44,hospital_001,2.8803,S_119,1.4329,False
27932,-37.588612,144.932287,9 Hybrid Court,CRAIGIEBURN,6384000,house,2015,4,2,2,SC_110,1.2557,40221,1.7629,45,hospital_104,6.9899,S_178,0.6185,True
36470,-37.661917,145.032204,47 Mindoro Crescent,LALOR,3080000,house,2010,3,1,1,SC_062,4.8334,20005,1.0766,0,hospital_053,1.8005,S_229,1.2152,False
58033,-37.827139,145.154719,35 Alandale Road,BLACKBURN,10608000,house,2014,4,1,2,SC_002,1.7079,19898,0.889,0,hospital_060,0.6589,S_018,0.8063,False
84210,-37.855277,145.009081,6 Kelvin Grove,PRAHRAN,31200000,house,2011,4,2,3,SC_066,1.6269,19946,0.6568,22,hospital_132,0.13,S_115,0.8721,True
95335,-37.923406,145.03482,26 Phillip Street,BENTLEIGH,7839000,house,2009,2,1,1,SC_046,1.818,19938,0.2023,40,hospital_110,1.0879,S_107,0.7714,False
22457,-37.744397,144.974497,28 Belgrave Street,COBURG,12740000,house,2014,3,1,1,SC_103,2.4753,19965,1.0086,0,hospital_144,1.3659,S_173,0.7589,True
47916,-37.80105,145.042641,148 Eglinton Street,KEW,10980000,house,2014,3,1,1,SC_083,2.2488,19904,2.3373,21,hospital_064,0.986,S_039,1.1571,False
31803,-37.74194,145.018807,126 Gower Street,PRESTON,5109000,house,2013,2,1,1,SC_047,1.0814,20012,1.6502,0,hospital_035,2.5259,S_084,1.5038,False
92419,-37.981103,145.05712,70 Mundy Street,MENTONE,20900000,house,2015,5,3,1,SC_003,3.0149,19865,0.711,39,hospital_055,0.4616,S_011,0.4688,True
48339,-37.81468582,145.05316159999995,35 Macartney Avenue,KEW,18800000,house,2008,5,3,2,SC_099,1.1573,19903,1.0729,23,hospital_064,0.792,S_208,1.6639,True
3183,-37.814301,144.86761299999995,24A Ballard Street,YARRAVILLE,5424000,house,2013,4,3,2,SC_033,2.2934,20022,1.7249,21,hospital_056,2.8678,S_149,2.3596,False
93366,-38.021972,145.106007,44 Glen Street,ASPENDALE,4920000,house,2010,3,1,2,SC_003,5.8514,19862,0.6751,46,hospital_001,4.5435,S_119,2.2959,False
43717,-37.702689,145.08318899999998,307 Grimshaw Street,WATSONIA,5993000,house,2014,3,1,1,SC_062,5.6821,19984,0.922,34,hospital_075,2.0157,S_020,1.503,False
77170,-37.932903,145.107318,22 Raleigh Street,CLARINDA,7891000,house,2010,3,1,2,SC_003,4.5471,19915,1.4778,39,hospital_076,1.7001,S_170,1.0917,True
54027,-37.81998,145.041272,11 Falmouth Street,HAWTHORN,10570000,house,2012,2,1,0,SC_083,0.5027,19904,0.4561,21,hospital_127,0.8042,S_208,0.5111,False
81752,-37.985988,145.23394299999995,13 Laurina Court,DOVETON,5792000,house,2016,3,1,2,SC_112,1.6607,19888,2.1704,54,hospital_119,1.3176,S_184,1.5318,True
82433,-37.991155,145.252842,80 Sheoak Street,DOVETON,3718000,house,2014,3,2,2,SC_077,1.6119,19885,3.3113,59,hospital_119,3.0469,S_195,1.5599,False
51647,-37.783716,145.118864,74 Rathmullen Quadrant,DONCASTER,10075000,house,2009,4,3,2,SC_091,0.7305,20042,3.9588,0,hospital_194,1.1994,S_188,0.5812,False
17484,-37.710618,144.937355,59 West Street,HADFIELD,3624000,house,2013,3,1,0,SC_030,2.6733,20033,1.6158,30,hospital_184,4.5294,S_004,0.4184,False
1085,-37.800458,144.884429,48 Hocking Street,FOOTSCRAY,12720000,house,2015,3,1,1,SC_043,2.1534,20023,0.1698,19,hospital_056,0.8302,S_201,1.195,True
37828,-37.632367,145.026837,9 Castlemaine Lane.,EPPING,7575000,house,2014,4,3,2,SC_062,5.6001,20005,2.2473,0,hospital_053,2.3247,S_196,1.6113,True
7098,-37.784302,144.83592099999996,9 Maryvale Street,SUNSHINE,6160000,house,2014,5,2,1,SC_102,0.3017,20021,0.5421,25,hospital_174,0.7943,S_080,0.3874,False
72427,-37.851183,145.257963,49 Terama Crescent,BAYSWATER,7910000,house,2015,3,2,2,SC_032,4.9867,19870,1.3809,0,hospital_002,1.0171,S_139,1.2048,True
36635,-37.637434000000006,145.032912,1 Jaguar Court,EPPING,7124000,house,2015,4,2,2,SC_062,4.8991,20005,1.6826,0,hospital_053,2.1385,S_196,2.0207,True
69171,-37.86709976,145.032196,46 Glendearg Grove,MALVERN,22350000,house,2008,3,2,1,SC_023,1.38,19944,0.2719,19,hospital_157,0.4842,S_013,0.6279,True
35950,-37.678202,145.039427,29 Regal Avenue,THOMASTOWN,4815000,house,2012,3,1,2,SC_062,5.0201,20007,2.2283,0,hospital_041,2.5441,S_228,2.0669,True
91105,-37.974255,145.044852,1 Biarritz Avenue,BEAUMARIS,15200000,house,2013,5,3,2,SC_079,2.8161,19866,1.2009,37,hospital_055,0.8975,S_011,1.7439,True
8872,-37.887392,144.75941799999995,14 John Lecky Road,SEABROOK,4596000,house,2009,3,2,0,SC_092,2.7753,46468,2.2166,32,hospital_073,7.0861,S_001,2.1538,True
81772,-37.987965,145.239078,132 Power Road,DOVETON,3341000,house,2014,3,1,0,SC_077,2.081,19888,2.5848,54,hospital_119,1.7926,S_184,1.9794,False
82592,-37.901421,145.279853,16 Monbulk Crescent,ROWVILLE,4880000,house,2014,4,2,2,SC_049,2.6123,19868,2.5788,0,hospital_150,2.9512,S_199,1.6165,False
23009,-37.746605,144.951561,6 Jamieson Street,COBURG,12920000,house,2014,3,1,2,SC_030,1.5856,19965,1.1398,0,hospital_084,1.0281,S_172,1.3231,True
1038,-37.806774,144.893977,44 Charles Street,SEDDON,12270000,house,2014,3,1,2,SC_043,3.2074,19997,0.2896,14,hospital_056,1.6657,S_201,0.7589,True
65038,-37.801223,145.30978000000005,1/14 Lomond avenue,KILSYTH,7040000,house,2015,3,1,3,SC_022,2.3606,19877,1.8483,0,hospital_164,4.8212,S_224,0.1137,False
17074,-37.711907,144.934588,33 Farview Street,GLENROY,8640000,house,2011,2,1,1,SC_030,2.6606,20033,1.333,30,hospital_184,4.266,S_004,0.6552,True
91248,-37.975132,145.051287,13a Towers Street,BEAUMARIS,10200000,house,2012,3,1,2,SC_079,3.0298,19866,0.9869,37,hospital_055,0.5436,S_011,1.2119,False
44437,-37.715834,145.103228,18 Glenice Street,GREENSBOROUGH,6188000,house,2011,3,1,3,SC_017,5.3935,19985,1.3944,38,hospital_075,1.214,S_020,1.271,False
93047,-37.985524,145.098044,246 Lower Dandenong Road,MORDIALLOC,5776000,house,2016,3,1,2,SC_003,1.7854,19864,2.0826,41,hospital_001,2.2832,S_003,1.8387,False
69172,-37.860868,145.03993300000005,46 Horace Street,MALVERN,15070000,house,2012,3,2,1,SC_023,1.7258,19944,1.1107,19,hospital_183,0.3136,S_235,0.9708,False
63717,-37.777838,145.296007,18 LE GREW STREET,CROYDON,13500000,house,2016,4,2,2,SC_022,2.6244,19877,1.6348,0,hospital_164,4.8717,S_181,2.4146,True
10248,-37.793258,144.926476,21 Epsom Road,KENSINGTON,12300000,house,2013,4,2,2,SC_011,1.5142,20041,0.3608,13,hospital_114,0.3718,S_086,0.688,True
58244,-37.824656,145.157735,6 Lake Road,BLACKBURN,9630000,house,2014,4,2,1,SC_002,1.3434,19898,0.8494,0,hospital_060,0.9358,S_018,1.1855,False
28706,-37.807502,144.986783,8/21 Northumberland Street,COLLINGWOOD,11700000,house,2009,2,1,3,SC_068,1.5216,19977,0.5973,8,hospital_170,0.4341,S_175,0.5088,True
71989,-37.857543,145.26289,11 Edinburgh Road,BAYSWATER,7552000,house,2014,4,2,2,SC_049,5.7198,19870,1.8197,0,hospital_002,0.5194,S_139,1.6599,True
4280,-37.834882,144.87985600000005,23 Blackshaws Road,NEWPORT,10400000,house,2013,3,1,0,SC_033,3.0501,19995,0.7132,18,hospital_141,3.2308,S_056,2.9378,True
40980,-37.680313,145.05248799999995,6 Zelkova Terrace,BUNDOORA,8955000,house,2010,4,2,2,SC_062,4.3155,20007,3.3662,0,hospital_041,1.5463,S_155,2.0574,True
41210,-37.698371,145.047697,82 Arthur Street,BUNDOORA,9520000,house,2016,3,3,1,SC_047,4.7271,20008,3.1784,0,hospital_037,0.9251,S_155,0.632,True
72153,-37.85611725,145.2556763,2 St. Andrews Road,BAYSWATER,5916000,house,2009,2,1,1,SC_032,5.3738,19870,1.9402,0,hospital_002,1.1016,S_139,1.7645,False
8319,-37.76312256,144.77801509999995,24 Parklea Avenue,CAIRNLEA,3520000,house,2009,3,2,2,SC_048,4.6471,20002,2.8095,33,hospital_057,3.2241,S_159,1.1609,False
21137,-37.758829,144.96961399999995,37 Barrow Street,BRUNSWICK,6780000,house,2011,2,1,0,SC_030,3.405,19967,0.8305,0,hospital_144,0.3245,S_074,1.4857,False
88939,-37.952093,145.054427,56 Turner Road,HIGHETT,11920000,house,2011,4,2,2,SC_079,1.2177,19872,1.1753,41,hospital_082,0.9551,S_023,0.8292,True
31672,-37.732893,144.998858,10 May Street,PRESTON,11172000,house,2016,4,1,1,SC_103,0.793,20011,0.6071,0,hospital_139,1.7074,S_085,0.5877,True
85656,-37.893457,145.00888999999995,44 College Street,ELSTERNWICK,18720000,house,2013,4,2,3,SC_023,3.5497,19953,0.5495,19,hospital_013,0.4942,S_193,0.7623,True
27999,-37.584153,144.90875,Lot 11617 Folger Road,CRAIGIEBURN,3880000,house,2011,3,2,1,SC_016,1.0694,40221,3.6282,45,hospital_104,7.4786,S_178,2.4824,False
44076,-37.696733,145.111734,10 Somerleigh Crescent,GREENSBOROUGH,5200000,house,2014,4,2,1,SC_051,4.9466,19985,0.8605,38,hospital_075,1.0681,S_210,1.0746,False
76507,-37.91855200000001,145.140117,1/844 Blackburn Road,CLAYTON,5895000,house,2013,4,2,1,SC_073,4.2515,19915,1.8501,39,hospital_065,1.6176,S_169,2.0591,False
33759,-37.713408,145.023325,13 Clements Grove,RESERVOIR,6985000,house,2016,2,2,2,SC_047,2.8657,20009,1.362,0,hospital_025,1.7923,S_225,1.366,True
57757,-37.812018,145.16136799999995,2 Ashlar Crescent,BLACKBURN,7740000,house,2010,4,2,2,SC_002,1.2084,19898,1.3418,0,hospital_060,2.3771,S_202,1.8596,False
